[
{"codigo_departamento":5,"codigo_municipio":5001,"codigo":5001000,"nombre":"MEDELLÍN","tipo":"CM","longitud":-75.5760017134,"latitud":6.24858636743,"tipo_municipio":"MUNICIPIO"},
{"codigo_departamento":5,"codigo_municipio":5001,"codigo":5001001,"nombre":"PALMITAS","tipo":"C","longitud":-75.6899859872,"latitud":6.3439224059,"tipo_municipio":"MUNICIPIO"},
{"codigo_departamento":5,"codigo_municipio":5001,"codigo":5001004,"nombre":"SANTA ELENA","tipo":"C","longitud":-75.5003166982,"latitud":6.20967456778,"tipo_municipio":"MUNICIPIO"},
{"codigo_departamento":5,"codigo_municipio":5001,"codigo":5001009,"nombre":"ALTAVISTA","tipo":"C","longitud":-75.6299441751,"latitud":6.22248273057,"tipo_municipio":"MUNICIPIO"},
{"codigo_departamento":5,"codigo_municipio":5001,"codigo":5001010,"nombre":"AGUAS FRÍAS","tipo":"C","longitud":-75.6339460169,"latitud":6.2333355874,"tipo_municipio":"MUNICIPIO"},
{"codigo_departamento":5,"codigo_municipio":5001,"codigo":5001012,"nombre":"LA LOMA","tipo":"CP","longitud":-75.6297540724,"latitud":6.26890878235,"tipo_municipio":"MUNICIPIO"},
{"codigo_departamento":5,"codigo_municipio":5001,"codigo":5001013,"nombre":"SAN JOSÉ DEL MANZANILLO","tipo":"CP","longitud":-75.61342487,"latitud":6.20581068001,"tipo_municipio":"MUNICIPIO"},
{"codigo_departamento":5,"codigo_municipio":5001,"codigo":5001014,"nombre":"BARRO BLANCO","tipo":"CP","longitud":-75.4775622151,"latitud":6.23479805798,"tipo_municipio":"MUNICIPIO"},
{"codigo_departamento":5,"codigo_municipio":5001,"codigo":5001015,"nombre":"EL CERRO","tipo":"CP","longitud":-75.489476496,"latitud":6.20035636487,"tipo_municipio":"MUNICIPIO"},
{"codigo_departamento":5,"codigo_municipio":5001,"codigo":5001017,"nombre":"EL PATIO","tipo":"CP","longitud":-75.6511004924,"latitud":6.27784108634,"tipo_municipio":"MUNICIPIO"},
{"codigo_departamento":5,"codigo_municipio":5001,"codigo":5001018,"nombre":"EL PLACER","tipo":"CP","longitud":-75.4930142589,"latitud":6.22476631163,"tipo_municipio":"MUNICIPIO"},
{"codigo_departamento":5,"codigo_municipio":5001,"codigo":5001019,"nombre":"EL PLAN","tipo":"CP","longitud":-75.5183705,"latitud":6.20435971513,"tipo_municipio":"MUNICIPIO"},
{"codigo_departamento":5,"codigo_municipio":5001,"codigo":5001022,"nombre":"LA ALDEA","tipo":"CP","longitud":-75.7035503836,"latitud":6.34243040051,"tipo_municipio":"MUNICIPIO"},
{"codigo_departamento":5,"codigo_municipio":5001,"codigo":5001023,"nombre":"LA CUCHILLA","tipo":"CP","longitud":-75.6535467831,"latitud":6.29350870315,"tipo_municipio":"MUNICIPIO"},
{"codigo_departamento":5,"codigo_municipio":5001,"codigo":5001025,"nombre":"LA PALMA","tipo":"CP","longitud":-75.6481527137,"latitud":6.27383086596,"tipo_municipio":"MUNICIPIO"},
{"codigo_departamento":5,"codigo_municipio":5001,"codigo":5001027,"nombre":"LAS PLAYAS","tipo":"CP","longitud":-75.6489995687,"latitud":6.28394357047,"tipo_municipio":"MUNICIPIO"},
{"codigo_departamento":5,"codigo_municipio":5001,"codigo":5001029,"nombre":"PIEDRA GORDA","tipo":"CP","longitud":-75.498182909,"latitud":6.23489261348,"tipo_municipio":"MUNICIPIO"},
{"codigo_departamento":5,"codigo_municipio":5001,"codigo":5001031,"nombre":"POTRERITO","tipo":"CP","longitud":-75.667907579,"latitud":6.18307451818,"tipo_municipio":"MUNICIPIO"},
{"codigo_departamento":5,"codigo_municipio":5001,"codigo":5001032,"nombre":"TRAVESÍAS","tipo":"CP","longitud":-75.6431084203,"latitud":6.28703191801,"tipo_municipio":"MUNICIPIO"},
{"codigo_departamento":5,"codigo_municipio":5001,"codigo":5001033,"nombre":"URQUITA","tipo":"CP","longitud":0,"latitud":0,"tipo_municipio":"MUNICIPIO"},
{"codigo_departamento":5,"codigo_municipio":5001,"codigo":5001035,"nombre":"BOQUERÓN","tipo":"CP","longitud":-75.6573758995,"latitud":6.31466453166,"tipo_municipio":"MUNICIPIO"},
{"codigo_departamento":5,"codigo_municipio":5001,"codigo":5001039,"nombre":"EL LLANO 1","tipo":"CP","longitud":-75.6494934186,"latitud":6.29451550368,"tipo_municipio":"MUNICIPIO"},
{"codigo_departamento":5,"codigo_municipio":5001,"codigo":5001040,"nombre":"EL LLANO","tipo":"CP","longitud":-75.5033167357,"latitud":6.19831282539,"tipo_municipio":"MUNICIPIO"},
{"codigo_departamento":5,"codigo_municipio":5001,"codigo":5001048,"nombre":"LA VERDE","tipo":"CP","longitud":-75.6394956297,"latitud":6.19043349672,"tipo_municipio":"MUNICIPIO"},
{"codigo_departamento":5,"codigo_municipio":5001,"codigo":5001052,"nombre":"MATASANO","tipo":"CP","longitud":-75.492529472,"latitud":6.25765451031,"tipo_municipio":"MUNICIPIO"},
{"codigo_departamento":5,"codigo_municipio":5001,"codigo":5001054,"nombre":"MATASANO 2","tipo":"CP","longitud":-75.5054392905,"latitud":6.26734684369,"tipo_municipio":"MUNICIPIO"},
{"codigo_departamento":5,"codigo_municipio":5001,"codigo":5001055,"nombre":"MAZO","tipo":"CP","longitud":-75.49872337,"latitud":6.248320747,"tipo_municipio":"MUNICIPIO"},
{"codigo_departamento":5,"codigo_municipio":5001,"codigo":5001056,"nombre":"MAZO 1","tipo":"CP","longitud":0,"latitud":0,"tipo_municipio":"MUNICIPIO"},
{"codigo_departamento":5,"codigo_municipio":5001,"codigo":5001057,"nombre":"MEDIA LUNA","tipo":"CP","longitud":-75.5159979268,"latitud":6.24024827186,"tipo_municipio":"MUNICIPIO"},
{"codigo_departamento":5,"codigo_municipio":5001,"codigo":5001066,"nombre":"LAS CAMELIAS","tipo":"CP","longitud":-75.6433753534,"latitud":6.19672626844,"tipo_municipio":"MUNICIPIO"},
{"codigo_departamento":5,"codigo_municipio":5002,"codigo":5002000,"nombre":"ABEJORRAL","tipo":"CM","longitud":-75.4287403904,"latitud":5.78930111433,"tipo_municipio":"MUNICIPIO"},
{"codigo_departamento":5,"codigo_municipio":5002,"codigo":5002002,"nombre":"PANTANILLO","tipo":"C","longitud":-75.492961864,"latitud":5.730917629,"tipo_municipio":"MUNICIPIO"},
{"codigo_departamento":5,"codigo_municipio":5002,"codigo":5002004,"nombre":"NARANJAL - LAS FONDAS","tipo":"CAS","longitud":-75.514169806,"latitud":5.763411113,"tipo_municipio":"MUNICIPIO"},
{"codigo_departamento":5,"codigo_municipio":5002,"codigo":5002016,"nombre":"LAS CANOAS","tipo":"CP","longitud":-75.428660109,"latitud":5.78202887815,"tipo_municipio":"MUNICIPIO"},
{"codigo_departamento":5,"codigo_municipio":5004,"codigo":5004000,"nombre":"ABRIAQUÍ","tipo":"CM","longitud":-76.0642948678,"latitud":6.63228195504,"tipo_municipio":"MUNICIPIO"},
{"codigo_departamento":5,"codigo_municipio":5004,"codigo":5004003,"nombre":"POTREROS SECTOR 1","tipo":"CAS","longitud":-76.0894075977,"latitud":6.67479034665,"tipo_municipio":"MUNICIPIO"},
{"codigo_departamento":5,"codigo_municipio":5021,"codigo":5021000,"nombre":"ALEJANDRÍA","tipo":"CM","longitud":-75.141334501,"latitud":6.37606264274,"tipo_municipio":"MUNICIPIO"},
{"codigo_departamento":5,"codigo_municipio":5030,"codigo":5030000,"nombre":"AMAGÁ","tipo":"CM","longitud":-75.7019483389,"latitud":6.03880842381,"tipo_municipio":"MUNICIPIO"},
{"codigo_departamento":5,"codigo_municipio":5030,"codigo":5030001,"nombre":"CAMILO C","tipo":"CP","longitud":-75.6985600127,"latitud":6.02572906075,"tipo_municipio":"MUNICIPIO"},
{"codigo_departamento":5,"codigo_municipio":5030,"codigo":5030003,"nombre":"LA CLARITA","tipo":"CP","longitud":-75.699650531,"latitud":6.06889371752,"tipo_municipio":"MUNICIPIO"},
{"codigo_departamento":5,"codigo_municipio":5030,"codigo":5030004,"nombre":"LA FERREIRA","tipo":"CAS","longitud":-75.7092757411,"latitud":6.06338935262,"tipo_municipio":"MUNICIPIO"},
{"codigo_departamento":5,"codigo_municipio":5030,"codigo":5030005,"nombre":"LA GUALÍ","tipo":"CAS","longitud":-75.706869786,"latitud":6.05736790207,"tipo_municipio":"MUNICIPIO"},
{"codigo_departamento":5,"codigo_municipio":5030,"codigo":5030006,"nombre":"PIEDECUESTA","tipo":"CAS","longitud":-75.6929859987,"latitud":6.04976095926,"tipo_municipio":"MUNICIPIO"},
{"codigo_departamento":5,"codigo_municipio":5030,"codigo":5030011,"nombre":"MINAS","tipo":"CP","longitud":-75.7011486114,"latitud":6.07757173503,"tipo_municipio":"MUNICIPIO"},
{"codigo_departamento":5,"codigo_municipio":5030,"codigo":5030012,"nombre":"CAMILO C - ALTO DE LA VIRGEN","tipo":"C","longitud":-75.7031062243,"latitud":6.02729183748,"tipo_municipio":"MUNICIPIO"},
{"codigo_departamento":5,"codigo_municipio":5030,"codigo":5030013,"nombre":"PIEDECUESTA - MANI DE LAS CASAS","tipo":"CAS","longitud":-75.6938423142,"latitud":6.05546056117,"tipo_municipio":"MUNICIPIO"},
{"codigo_departamento":5,"codigo_municipio":5031,"codigo":5031000,"nombre":"AMALFI","tipo":"CM","longitud":-75.0774749239,"latitud":6.90967360478,"tipo_municipio":"MUNICIPIO"},
{"codigo_departamento":5,"codigo_municipio":5031,"codigo":5031004,"nombre":"PORTACHUELO","tipo":"CP","longitud":-74.927366902,"latitud":6.801117641,"tipo_municipio":"MUNICIPIO"},
{"codigo_departamento":5,"codigo_municipio":5034,"codigo":5034000,"nombre":"ANDES","tipo":"CM","longitud":-75.878794075,"latitud":5.65676971311,"tipo_municipio":"MUNICIPIO"},
{"codigo_departamento":5,"codigo_municipio":5034,"codigo":5034001,"nombre":"BUENOS AIRES","tipo":"C","longitud":-75.8355542529,"latitud":5.68285673695,"tipo_municipio":"MUNICIPIO"},
{"codigo_departamento":5,"codigo_municipio":5034,"codigo":5034003,"nombre":"SAN JOSÉ","tipo":"C","longitud":-75.8703726817,"latitud":5.73606403976,"tipo_municipio":"MUNICIPIO"},
{"codigo_departamento":5,"codigo_municipio":5034,"codigo":5034006,"nombre":"SANTA RITA","tipo":"C","longitud":-75.9173374589,"latitud":5.6126249981,"tipo_municipio":"MUNICIPIO"},
{"codigo_departamento":5,"codigo_municipio":5034,"codigo":5034007,"nombre":"TAPARTÓ","tipo":"C","longitud":-75.9650552653,"latitud":5.70092831497,"tipo_municipio":"MUNICIPIO"},
{"codigo_departamento":5,"codigo_municipio":5034,"codigo":5034012,"nombre":"SANTA INÉS","tipo":"C","longitud":-75.8998875545,"latitud":5.56384213481,"tipo_municipio":"MUNICIPIO"},
{"codigo_departamento":5,"codigo_municipio":5034,"codigo":5034014,"nombre":"SAN BARTOLO","tipo":"CP","longitud":-75.8533371503,"latitud":5.6377077228,"tipo_municipio":"MUNICIPIO"},
{"codigo_departamento":5,"codigo_municipio":5034,"codigo":5034015,"nombre":"LA CHAPARRALA - LA UNIÓN","tipo":"C","longitud":-75.9244908295,"latitud":5.652844471,"tipo_municipio":"MUNICIPIO"},
{"codigo_departamento":5,"codigo_municipio":5036,"codigo":5036000,"nombre":"ANGELÓPOLIS","tipo":"CM","longitud":-75.7113533837,"latitud":6.10961277767,"tipo_municipio":"MUNICIPIO"},
{"codigo_departamento":5,"codigo_municipio":5036,"codigo":5036001,"nombre":"LA ESTACIÓN","tipo":"C","longitud":-75.7034175922,"latitud":6.08454652003,"tipo_municipio":"MUNICIPIO"},
{"codigo_departamento":5,"codigo_municipio":5036,"codigo":5036006,"nombre":"SANTA RITA","tipo":"CAS","longitud":-75.7097450088,"latitud":6.09940945497,"tipo_municipio":"MUNICIPIO"},
{"codigo_departamento":5,"codigo_municipio":5036,"codigo":5036011,"nombre":"CIENAGUITA","tipo":"CAS","longitud":-75.7488334763,"latitud":6.11903267198,"tipo_municipio":"MUNICIPIO"},
{"codigo_departamento":5,"codigo_municipio":5038,"codigo":5038000,"nombre":"ANGOSTURA","tipo":"CM","longitud":-75.3351091186,"latitud":6.88518441484,"tipo_municipio":"MUNICIPIO"},
{"codigo_departamento":5,"codigo_municipio":5038,"codigo":5038008,"nombre":"LLANOS DE CUIBA","tipo":"C","longitud":-75.487458974,"latitud":6.812976109,"tipo_municipio":"MUNICIPIO"},
{"codigo_departamento":5,"codigo_municipio":5040,"codigo":5040000,"nombre":"ANORÍ","tipo":"CM","longitud":-75.1483449609,"latitud":7.07471004137,"tipo_municipio":"MUNICIPIO"},
{"codigo_departamento":5,"codigo_municipio":5040,"codigo":5040002,"nombre":"LIBERIA","tipo":"C","longitud":0,"latitud":0,"tipo_municipio":"MUNICIPIO"},
{"codigo_departamento":5,"codigo_municipio":5040,"codigo":5040003,"nombre":"MONTEFRÍO","tipo":"C","longitud":0,"latitud":0,"tipo_municipio":"MUNICIPIO"},
{"codigo_departamento":5,"codigo_municipio":5040,"codigo":5040004,"nombre":"SANTO DOMINGO","tipo":"IP","longitud":0,"latitud":0,"tipo_municipio":"MUNICIPIO"},
{"codigo_departamento":5,"codigo_municipio":5040,"codigo":5040005,"nombre":"CRISTALINAS","tipo":"IP","longitud":0,"latitud":0,"tipo_municipio":"MUNICIPIO"},
{"codigo_departamento":5,"codigo_municipio":5040,"codigo":5040006,"nombre":"LAS NIEVES","tipo":"IP","longitud":0,"latitud":0,"tipo_municipio":"MUNICIPIO"},
{"codigo_departamento":5,"codigo_municipio":5042,"codigo":5042000,"nombre":"SANTA FÉ DE ANTIOQUIA","tipo":"CM","longitud":-75.8270783216,"latitud":6.55653286033,"tipo_municipio":"MUNICIPIO"},
{"codigo_departamento":5,"codigo_municipio":5042,"codigo":5042002,"nombre":"LAURELES","tipo":"CAS","longitud":-75.9491556386,"latitud":6.49014027012,"tipo_municipio":"MUNICIPIO"},
{"codigo_departamento":5,"codigo_municipio":5042,"codigo":5042006,"nombre":"EL PESCADO","tipo":"IP","longitud":-75.9098501356,"latitud":6.49557990899,"tipo_municipio":"MUNICIPIO"},
{"codigo_departamento":5,"codigo_municipio":5042,"codigo":5042007,"nombre":"SABANAS","tipo":"C","longitud":-75.912958481,"latitud":6.46145925075,"tipo_municipio":"MUNICIPIO"},
{"codigo_departamento":5,"codigo_municipio":5042,"codigo":5042008,"nombre":"KILOMETRO 2","tipo":"CAS","longitud":-75.846440892,"latitud":6.560424387,"tipo_municipio":"MUNICIPIO"},
{"codigo_departamento":5,"codigo_municipio":5042,"codigo":5042009,"nombre":"PASO REAL","tipo":"CAS","longitud":-75.8182182374,"latitud":6.51518479909,"tipo_municipio":"MUNICIPIO"},
{"codigo_departamento":5,"codigo_municipio":5044,"codigo":5044000,"nombre":"ANZÁ","tipo":"CM","longitud":-75.854448759,"latitud":6.3026667644,"tipo_municipio":"MUNICIPIO"},
{"codigo_departamento":5,"codigo_municipio":5044,"codigo":5044001,"nombre":"GUINTAR","tipo":"C","longitud":-75.9571587855,"latitud":6.30205279623,"tipo_municipio":"MUNICIPIO"},
{"codigo_departamento":5,"codigo_municipio":5044,"codigo":5044005,"nombre":"LA CEJITA","tipo":"IP","longitud":-75.910991461,"latitud":6.32675555305,"tipo_municipio":"MUNICIPIO"},
{"codigo_departamento":5,"codigo_municipio":5044,"codigo":5044006,"nombre":"LA HIGUINA","tipo":"IP","longitud":-75.8514060761,"latitud":6.36749525468,"tipo_municipio":"MUNICIPIO"},
{"codigo_departamento":5,"codigo_municipio":5045,"codigo":5045000,"nombre":"APARTADÓ","tipo":"CM","longitud":-76.6258909217,"latitud":7.88325108195,"tipo_municipio":"MUNICIPIO"},
{"codigo_departamento":5,"codigo_municipio":5045,"codigo":5045001,"nombre":"SAN JOSÉ DE APARTADÓ","tipo":"C","longitud":-76.5841346102,"latitud":7.86476961858,"tipo_municipio":"MUNICIPIO"},
{"codigo_departamento":5,"codigo_municipio":5045,"codigo":5045002,"nombre":"CHURIDÓ","tipo":"C","longitud":-76.6671769945,"latitud":7.86546284856,"tipo_municipio":"MUNICIPIO"},
{"codigo_departamento":5,"codigo_municipio":5045,"codigo":5045003,"nombre":"ZUNGO CARRETERA","tipo":"CP","longitud":-76.648965043,"latitud":7.82373643,"tipo_municipio":"MUNICIPIO"},
{"codigo_departamento":5,"codigo_municipio":5045,"codigo":5045007,"nombre":"LOS NARANJALES","tipo":"C","longitud":0,"latitud":0,"tipo_municipio":"MUNICIPIO"},
{"codigo_departamento":5,"codigo_municipio":5045,"codigo":5045008,"nombre":"VIJAGUAL","tipo":"CP","longitud":-76.6583910429,"latitud":7.79008557787,"tipo_municipio":"MUNICIPIO"},
{"codigo_departamento":5,"codigo_municipio":5045,"codigo":5045009,"nombre":"EL REPOSO","tipo":"C","longitud":-76.6538601029,"latitud":7.79943428324,"tipo_municipio":"MUNICIPIO"},
{"codigo_departamento":5,"codigo_municipio":5045,"codigo":5045010,"nombre":"BAJO DEL OSO","tipo":"CP","longitud":-76.6253010519,"latitud":7.91005770908,"tipo_municipio":"MUNICIPIO"},
{"codigo_departamento":5,"codigo_municipio":5045,"codigo":5045011,"nombre":"EL SALVADOR","tipo":"C","longitud":-76.6486044422,"latitud":7.87833529517,"tipo_municipio":"MUNICIPIO"},
{"codigo_departamento":5,"codigo_municipio":5045,"codigo":5045014,"nombre":"PUERTO GIRÓN","tipo":"CP","longitud":-76.7370733509,"latitud":7.90564946097,"tipo_municipio":"MUNICIPIO"},
{"codigo_departamento":5,"codigo_municipio":5045,"codigo":5045015,"nombre":"LOMA VERDE","tipo":"CP","longitud":-76.6436037404,"latitud":7.82398081903,"tipo_municipio":"MUNICIPIO"},
{"codigo_departamento":5,"codigo_municipio":5045,"codigo":5045016,"nombre":"SAN PABLO","tipo":"CP","longitud":-76.715702319,"latitud":7.89863050266,"tipo_municipio":"MUNICIPIO"},
{"codigo_departamento":5,"codigo_municipio":5051,"codigo":5051000,"nombre":"ARBOLETES","tipo":"CM","longitud":-76.4266581639,"latitud":8.84991827334,"tipo_municipio":"MUNICIPIO"},
{"codigo_departamento":5,"codigo_municipio":5051,"codigo":5051001,"nombre":"BUENOS AIRES","tipo":"C","longitud":-76.2826485164,"latitud":8.61124728077,"tipo_municipio":"MUNICIPIO"},
{"codigo_departamento":5,"codigo_municipio":5051,"codigo":5051003,"nombre":"EL CARMELO","tipo":"C","longitud":-76.3817990632,"latitud":8.61641933073,"tipo_municipio":"MUNICIPIO"},
{"codigo_departamento":5,"codigo_municipio":5051,"codigo":5051005,"nombre":"LAS NARANJITAS","tipo":"C","longitud":-76.3334541791,"latitud":8.52928930038,"tipo_municipio":"MUNICIPIO"},
{"codigo_departamento":5,"codigo_municipio":5051,"codigo":5051008,"nombre":"EL YESO","tipo":"CAS","longitud":-76.4764811924,"latitud":8.61627283218,"tipo_municipio":"MUNICIPIO"},
{"codigo_departamento":5,"codigo_municipio":5051,"codigo":5051009,"nombre":"LA TRINIDAD","tipo":"C","longitud":-76.5080581557,"latitud":8.62509364034,"tipo_municipio":"MUNICIPIO"},
{"codigo_departamento":5,"codigo_municipio":5051,"codigo":5051010,"nombre":"LAS PLATAS (SANTAFÉ)","tipo":"IP","longitud":-76.4404830954,"latitud":8.58092456776,"tipo_municipio":"MUNICIPIO"},
{"codigo_departamento":5,"codigo_municipio":5051,"codigo":5051011,"nombre":"LA CANDELARIA","tipo":"C","longitud":-76.4502319517,"latitud":8.65652472732,"tipo_municipio":"MUNICIPIO"},
{"codigo_departamento":5,"codigo_municipio":5051,"codigo":5051014,"nombre":"EL GUADUAL","tipo":"CAS","longitud":-76.3848794836,"latitud":8.48699752944,"tipo_municipio":"MUNICIPIO"},
{"codigo_departamento":5,"codigo_municipio":5055,"codigo":5055000,"nombre":"ARGELIA","tipo":"CM","longitud":-75.1410633595,"latitud":5.73147922832,"tipo_municipio":"MUNICIPIO"},
{"codigo_departamento":5,"codigo_municipio":5059,"codigo":5059000,"nombre":"ARMENIA","tipo":"CM","longitud":-75.7866245369,"latitud":6.15567240561,"tipo_municipio":"MUNICIPIO"},
{"codigo_departamento":5,"codigo_municipio":5059,"codigo":5059001,"nombre":"LA HERRADURA","tipo":"C","longitud":-75.8066530513,"latitud":6.14659274967,"tipo_municipio":"MUNICIPIO"},
{"codigo_departamento":5,"codigo_municipio":5059,"codigo":5059003,"nombre":"EL SOCORRO","tipo":"CAS","longitud":-75.7851221151,"latitud":6.14616653119,"tipo_municipio":"MUNICIPIO"},
{"codigo_departamento":5,"codigo_municipio":5059,"codigo":5059006,"nombre":"FILO SECO","tipo":"CP","longitud":-75.8118735322,"latitud":6.1425221797,"tipo_municipio":"MUNICIPIO"},
{"codigo_departamento":5,"codigo_municipio":5059,"codigo":5059009,"nombre":"PALMICHAL","tipo":"CP","longitud":-75.806715378,"latitud":6.159533401,"tipo_municipio":"MUNICIPIO"},
{"codigo_departamento":5,"codigo_municipio":5079,"codigo":5079000,"nombre":"BARBOSA","tipo":"CM","longitud":-75.3316403017,"latitud":6.4392260115,"tipo_municipio":"MUNICIPIO"},
{"codigo_departamento":5,"codigo_municipio":5079,"codigo":5079001,"nombre":"HATILLO","tipo":"C","longitud":-75.3926606393,"latitud":6.41066432646,"tipo_municipio":"MUNICIPIO"},
{"codigo_departamento":5,"codigo_municipio":5079,"codigo":5079005,"nombre":"PLATANITO","tipo":"CP","longitud":-75.4068698995,"latitud":6.40517673757,"tipo_municipio":"MUNICIPIO"},
{"codigo_departamento":5,"codigo_municipio":5079,"codigo":5079008,"nombre":"ISAZA","tipo":"CP","longitud":-75.3607631808,"latitud":6.42041888174,"tipo_municipio":"MUNICIPIO"},
{"codigo_departamento":5,"codigo_municipio":5079,"codigo":5079014,"nombre":"POPALITO","tipo":"C","longitud":-75.2837919226,"latitud":6.47359441304,"tipo_municipio":"MUNICIPIO"},
{"codigo_departamento":5,"codigo_municipio":5079,"codigo":5079016,"nombre":"YARUMITO","tipo":"CP","longitud":-75.30373386,"latitud":6.457457349,"tipo_municipio":"MUNICIPIO"},
{"codigo_departamento":5,"codigo_municipio":5079,"codigo":5079017,"nombre":"TABLAZO - HATILLO","tipo":"CP","longitud":-75.4133044027,"latitud":6.41887682667,"tipo_municipio":"MUNICIPIO"},
{"codigo_departamento":5,"codigo_municipio":5079,"codigo":5079018,"nombre":"EL PARAISO","tipo":"CP","longitud":-75.414864188,"latitud":6.41314092295,"tipo_municipio":"MUNICIPIO"},
{"codigo_departamento":5,"codigo_municipio":5079,"codigo":5079019,"nombre":"EL SALADITO","tipo":"CP","longitud":-75.401844893,"latitud":6.407348404,"tipo_municipio":"MUNICIPIO"},
{"codigo_departamento":5,"codigo_municipio":5079,"codigo":5079020,"nombre":"LOMITA 1","tipo":"CP","longitud":-75.4069890912,"latitud":6.41825456822,"tipo_municipio":"MUNICIPIO"},
{"codigo_departamento":5,"codigo_municipio":5079,"codigo":5079021,"nombre":"LOMITA 2","tipo":"CP","longitud":-75.4077713014,"latitud":6.41573346658,"tipo_municipio":"MUNICIPIO"},
{"codigo_departamento":5,"codigo_municipio":5079,"codigo":5079022,"nombre":"LA PRIMAVERA","tipo":"CP","longitud":-75.4062648681,"latitud":6.41389608409,"tipo_municipio":"MUNICIPIO"},
{"codigo_departamento":5,"codigo_municipio":5079,"codigo":5079023,"nombre":"TAMBORCITO","tipo":"CP","longitud":-75.3111625975,"latitud":6.45219478807,"tipo_municipio":"MUNICIPIO"},
{"codigo_departamento":5,"codigo_municipio":5086,"codigo":5086000,"nombre":"BELMIRA","tipo":"CM","longitud":-75.6673737242,"latitud":6.60615865921,"tipo_municipio":"MUNICIPIO"},
{"codigo_departamento":5,"codigo_municipio":5086,"codigo":5086001,"nombre":"LABORES","tipo":"C","longitud":-75.6125065279,"latitud":6.70979191028,"tipo_municipio":"MUNICIPIO"},
{"codigo_departamento":5,"codigo_municipio":5086,"codigo":5086003,"nombre":"RÍO ARRIBA","tipo":"CP","longitud":-75.6718134407,"latitud":6.61333788559,"tipo_municipio":"MUNICIPIO"},
{"codigo_departamento":5,"codigo_municipio":5088,"codigo":5088000,"nombre":"BELLO","tipo":"CM","longitud":-75.5546673053,"latitud":6.33406558292,"tipo_municipio":"MUNICIPIO"},
{"codigo_departamento":5,"codigo_municipio":5088,"codigo":5088008,"nombre":"POTRERITO","tipo":"CAS","longitud":-75.581125733,"latitud":6.331287917,"tipo_municipio":"MUNICIPIO"},
{"codigo_departamento":5,"codigo_municipio":5088,"codigo":5088013,"nombre":"SAN FÉLIX","tipo":"C","longitud":-75.6089691966,"latitud":6.34061054762,"tipo_municipio":"MUNICIPIO"},
{"codigo_departamento":5,"codigo_municipio":5088,"codigo":5088018,"nombre":"EL PINAR","tipo":"CP","longitud":-75.5300927755,"latitud":6.30109168619,"tipo_municipio":"MUNICIPIO"},
{"codigo_departamento":5,"codigo_municipio":5088,"codigo":5088020,"nombre":"EL ALBERGUE","tipo":"CP","longitud":-75.5364647983,"latitud":6.30706551641,"tipo_municipio":"MUNICIPIO"},
{"codigo_departamento":5,"codigo_municipio":5088,"codigo":5088022,"nombre":"LA CHINA","tipo":"CP","longitud":-75.6148776785,"latitud":6.39851131551,"tipo_municipio":"MUNICIPIO"},
{"codigo_departamento":5,"codigo_municipio":5088,"codigo":5088023,"nombre":"LA UNIÓN","tipo":"CP","longitud":-75.62123505,"latitud":6.38242101183,"tipo_municipio":"MUNICIPIO"},
{"codigo_departamento":5,"codigo_municipio":5091,"codigo":5091000,"nombre":"BETANIA","tipo":"CM","longitud":-75.9767139414,"latitud":5.74619656152,"tipo_municipio":"MUNICIPIO"},
{"codigo_departamento":5,"codigo_municipio":5091,"codigo":5091003,"nombre":"SAN LUIS","tipo":"CP","longitud":-75.986423315,"latitud":5.753500129,"tipo_municipio":"MUNICIPIO"},
{"codigo_departamento":5,"codigo_municipio":5093,"codigo":5093000,"nombre":"BETULIA","tipo":"CM","longitud":-75.9845155699,"latitud":6.11525553285,"tipo_municipio":"MUNICIPIO"},
{"codigo_departamento":5,"codigo_municipio":5093,"codigo":5093001,"nombre":"ALTAMIRA","tipo":"C","longitud":-75.9492537852,"latitud":6.21966316534,"tipo_municipio":"MUNICIPIO"},
{"codigo_departamento":5,"codigo_municipio":5101,"codigo":5101000,"nombre":"CIUDAD BOLÍVAR","tipo":"CM","longitud":-76.0215106815,"latitud":5.85027282845,"tipo_municipio":"MUNICIPIO"},
{"codigo_departamento":5,"codigo_municipio":5101,"codigo":5101002,"nombre":"SAN BERNARDO DE LOS FARALLONES","tipo":"C","longitud":-76.0290562941,"latitud":5.79957939591,"tipo_municipio":"MUNICIPIO"},
{"codigo_departamento":5,"codigo_municipio":5101,"codigo":5101006,"nombre":"ALFONSO LÓPEZ (SAN GREGORIO)","tipo":"C","longitud":-75.9570553979,"latitud":5.89561031281,"tipo_municipio":"MUNICIPIO"},
{"codigo_departamento":5,"codigo_municipio":5101,"codigo":5101008,"nombre":"VILLA ALEGRÍA","tipo":"CP","longitud":-76.0135239893,"latitud":5.7829498807,"tipo_municipio":"MUNICIPIO"},
{"codigo_departamento":5,"codigo_municipio":5101,"codigo":5101010,"nombre":"EL CABRERO - BOLÍVAR ARRIBA","tipo":"CP","longitud":-76.035648809,"latitud":5.86598609631,"tipo_municipio":"MUNICIPIO"},
{"codigo_departamento":5,"codigo_municipio":5107,"codigo":5107000,"nombre":"BRICEÑO","tipo":"CM","longitud":-75.550356304,"latitud":7.11280551402,"tipo_municipio":"MUNICIPIO"},
{"codigo_departamento":5,"codigo_municipio":5107,"codigo":5107001,"nombre":"BERLÍN (PUEBLO NUEVO)","tipo":"C","longitud":-75.6259338689,"latitud":7.10758450218,"tipo_municipio":"MUNICIPIO"},
{"codigo_departamento":5,"codigo_municipio":5107,"codigo":5107002,"nombre":"EL ROBLAL","tipo":"IP","longitud":-75.5869983287,"latitud":7.13799769856,"tipo_municipio":"MUNICIPIO"},
{"codigo_departamento":5,"codigo_municipio":5107,"codigo":5107003,"nombre":"LAS AURAS","tipo":"C","longitud":-75.515195996,"latitud":7.19389479161,"tipo_municipio":"MUNICIPIO"},
{"codigo_departamento":5,"codigo_municipio":5107,"codigo":5107004,"nombre":"TRAVESIAS","tipo":"CAS","longitud":-75.5723162191,"latitud":7.13372860437,"tipo_municipio":"MUNICIPIO"},
{"codigo_departamento":5,"codigo_municipio":5113,"codigo":5113000,"nombre":"BURITICÁ","tipo":"CM","longitud":-75.9070561536,"latitud":6.72064775464,"tipo_municipio":"MUNICIPIO"},
{"codigo_departamento":5,"codigo_municipio":5113,"codigo":5113001,"nombre":"EL NARANJO","tipo":"IP","longitud":0,"latitud":0,"tipo_municipio":"MUNICIPIO"},
{"codigo_departamento":5,"codigo_municipio":5113,"codigo":5113002,"nombre":"GUARCO","tipo":"IP","longitud":0,"latitud":0,"tipo_municipio":"MUNICIPIO"},
{"codigo_departamento":5,"codigo_municipio":5113,"codigo":5113003,"nombre":"TABACAL","tipo":"C","longitud":-75.9145042996,"latitud":6.80595628177,"tipo_municipio":"MUNICIPIO"},
{"codigo_departamento":5,"codigo_municipio":5113,"codigo":5113004,"nombre":"URARCO","tipo":"C","longitud":0,"latitud":0,"tipo_municipio":"MUNICIPIO"},
{"codigo_departamento":5,"codigo_municipio":5113,"codigo":5113005,"nombre":"LA ANGELINA","tipo":"IP","longitud":0,"latitud":0,"tipo_municipio":"MUNICIPIO"},
{"codigo_departamento":5,"codigo_municipio":5113,"codigo":5113008,"nombre":"LA MARIELA","tipo":"CAS","longitud":-75.9065086894,"latitud":6.72691917512,"tipo_municipio":"MUNICIPIO"},
{"codigo_departamento":5,"codigo_municipio":5120,"codigo":5120000,"nombre":"CÁCERES","tipo":"CM","longitud":-75.3523573153,"latitud":7.57831474335,"tipo_municipio":"MUNICIPIO"},
{"codigo_departamento":5,"codigo_municipio":5120,"codigo":5120002,"nombre":"EL JARDÍN (TAMANÁ)","tipo":"C","longitud":-75.2538865201,"latitud":7.75477393165,"tipo_municipio":"MUNICIPIO"},
{"codigo_departamento":5,"codigo_municipio":5120,"codigo":5120003,"nombre":"GUARUMO","tipo":"C","longitud":-75.2092173931,"latitud":7.85453130984,"tipo_municipio":"MUNICIPIO"},
{"codigo_departamento":5,"codigo_municipio":5120,"codigo":5120004,"nombre":"MANIZALES","tipo":"C","longitud":-75.4143628513,"latitud":7.83683946506,"tipo_municipio":"MUNICIPIO"},
{"codigo_departamento":5,"codigo_municipio":5120,"codigo":5120006,"nombre":"PUERTO BÉLGICA","tipo":"C","longitud":-75.2831818585,"latitud":7.6673051087,"tipo_municipio":"MUNICIPIO"},
{"codigo_departamento":5,"codigo_municipio":5120,"codigo":5120010,"nombre":"PIAMONTE","tipo":"C","longitud":-75.2055832801,"latitud":7.78287990686,"tipo_municipio":"MUNICIPIO"},
{"codigo_departamento":5,"codigo_municipio":5120,"codigo":5120012,"nombre":"RÍO MAN","tipo":"CAS","longitud":-75.2080493075,"latitud":7.94529523243,"tipo_municipio":"MUNICIPIO"},
{"codigo_departamento":5,"codigo_municipio":5120,"codigo":5120013,"nombre":"LAS PAMPAS","tipo":"CAS","longitud":-75.2725289882,"latitud":7.71556406541,"tipo_municipio":"MUNICIPIO"},
{"codigo_departamento":5,"codigo_municipio":5120,"codigo":5120014,"nombre":"NICARAGUA","tipo":"CAS","longitud":-75.3839863494,"latitud":7.7343333107,"tipo_municipio":"MUNICIPIO"},
{"codigo_departamento":5,"codigo_municipio":5120,"codigo":5120015,"nombre":"PUERTO SANTO","tipo":"CAS","longitud":-75.2045793285,"latitud":7.80128519192,"tipo_municipio":"MUNICIPIO"},
{"codigo_departamento":5,"codigo_municipio":5125,"codigo":5125000,"nombre":"CAICEDO","tipo":"CM","longitud":-75.9828123649,"latitud":6.40556397358,"tipo_municipio":"MUNICIPIO"},
{"codigo_departamento":5,"codigo_municipio":5129,"codigo":5129000,"nombre":"CALDAS","tipo":"CM","longitud":-75.6336168248,"latitud":6.09129760323,"tipo_municipio":"MUNICIPIO"},
{"codigo_departamento":5,"codigo_municipio":5129,"codigo":5129001,"nombre":"EL CANO","tipo":"CP","longitud":-75.6405297077,"latitud":6.10770728392,"tipo_municipio":"MUNICIPIO"},
{"codigo_departamento":5,"codigo_municipio":5129,"codigo":5129002,"nombre":"LA RAYA","tipo":"CP","longitud":-75.6399130281,"latitud":6.11044057537,"tipo_municipio":"MUNICIPIO"},
{"codigo_departamento":5,"codigo_municipio":5129,"codigo":5129004,"nombre":"LA MIEL","tipo":"CP","longitud":-75.622236944,"latitud":6.102581643,"tipo_municipio":"MUNICIPIO"},
{"codigo_departamento":5,"codigo_municipio":5129,"codigo":5129005,"nombre":"LA CORRALITA","tipo":"CP","longitud":-75.6209100391,"latitud":6.08831248824,"tipo_municipio":"MUNICIPIO"},
{"codigo_departamento":5,"codigo_municipio":5129,"codigo":5129007,"nombre":"EL RAIZAL","tipo":"CP","longitud":-75.6451507007,"latitud":6.08769679518,"tipo_municipio":"MUNICIPIO"},
{"codigo_departamento":5,"codigo_municipio":5129,"codigo":5129008,"nombre":"LA CLARA","tipo":"CP","longitud":-75.6195491403,"latitud":6.04882098859,"tipo_municipio":"MUNICIPIO"},
{"codigo_departamento":5,"codigo_municipio":5129,"codigo":5129009,"nombre":"LA QUIEBRA","tipo":"CP","longitud":-75.648270541,"latitud":6.060246915,"tipo_municipio":"MUNICIPIO"},
{"codigo_departamento":5,"codigo_municipio":5129,"codigo":5129010,"nombre":"LA SALADA PARTE BAJA","tipo":"CP","longitud":-75.6245972605,"latitud":6.0498466042,"tipo_municipio":"MUNICIPIO"},
{"codigo_departamento":5,"codigo_municipio":5129,"codigo":5129011,"nombre":"LA TOLVA","tipo":"CP","longitud":-75.640988641,"latitud":6.058363337,"tipo_municipio":"MUNICIPIO"},
{"codigo_departamento":5,"codigo_municipio":5129,"codigo":5129012,"nombre":"LA VALERIA","tipo":"CP","longitud":-75.6480373273,"latitud":6.09318447498,"tipo_municipio":"MUNICIPIO"},
{"codigo_departamento":5,"codigo_municipio":5129,"codigo":5129013,"nombre":"LA AGUACATALA","tipo":"CP","longitud":-75.642554187,"latitud":6.10379050396,"tipo_municipio":"MUNICIPIO"},
{"codigo_departamento":5,"codigo_municipio":5129,"codigo":5129014,"nombre":"LA CORRALITA","tipo":"CP","longitud":0,"latitud":0,"tipo_municipio":"MUNICIPIO"},
{"codigo_departamento":5,"codigo_municipio":5129,"codigo":5129015,"nombre":"LA CHUSCALA","tipo":"CP","longitud":-75.6395828222,"latitud":6.08288513717,"tipo_municipio":"MUNICIPIO"},
{"codigo_departamento":5,"codigo_municipio":5129,"codigo":5129016,"nombre":"SALINAS","tipo":"CP","longitud":-75.660185305,"latitud":6.055834622,"tipo_municipio":"MUNICIPIO"},
{"codigo_departamento":5,"codigo_municipio":5134,"codigo":5134000,"nombre":"CAMPAMENTO","tipo":"CM","longitud":-75.298084784,"latitud":6.97977648289,"tipo_municipio":"MUNICIPIO"},
{"codigo_departamento":5,"codigo_municipio":5134,"codigo":5134001,"nombre":"LA CHIQUITA","tipo":"IP","longitud":-75.2636870875,"latitud":6.97159379948,"tipo_municipio":"MUNICIPIO"},
{"codigo_departamento":5,"codigo_municipio":5134,"codigo":5134002,"nombre":"LA SOLITA","tipo":"CAS","longitud":-75.2778116859,"latitud":7.05652594386,"tipo_municipio":"MUNICIPIO"},
{"codigo_departamento":5,"codigo_municipio":5134,"codigo":5134003,"nombre":"LLANADAS","tipo":"CAS","longitud":-75.2724337601,"latitud":7.03903569371,"tipo_municipio":"MUNICIPIO"},
{"codigo_departamento":5,"codigo_municipio":5138,"codigo":5138000,"nombre":"CAÑASGORDAS","tipo":"CM","longitud":-76.0282237214,"latitud":6.7538443832,"tipo_municipio":"MUNICIPIO"},
{"codigo_departamento":5,"codigo_municipio":5138,"codigo":5138001,"nombre":"BUENOS AIRES - PARTE ALTA","tipo":"CAS","longitud":-76.009662698,"latitud":6.726222629,"tipo_municipio":"MUNICIPIO"},
{"codigo_departamento":5,"codigo_municipio":5138,"codigo":5138002,"nombre":"CESTILLAL","tipo":"C","longitud":-76.0735940648,"latitud":6.85311815423,"tipo_municipio":"MUNICIPIO"},
{"codigo_departamento":5,"codigo_municipio":5138,"codigo":5138003,"nombre":"JUNTAS DE URAMITA","tipo":"C","longitud":-76.031209872,"latitud":6.921231274,"tipo_municipio":"MUNICIPIO"},
{"codigo_departamento":5,"codigo_municipio":5138,"codigo":5138005,"nombre":"SAN PASCUAL","tipo":"C","longitud":-76.0474121642,"latitud":6.84660574444,"tipo_municipio":"MUNICIPIO"},
{"codigo_departamento":5,"codigo_municipio":5138,"codigo":5138009,"nombre":"VILLA VICTORIA","tipo":"CAS","longitud":-76.0281117852,"latitud":6.92609881533,"tipo_municipio":"MUNICIPIO"},
{"codigo_departamento":5,"codigo_municipio":5142,"codigo":5142000,"nombre":"CARACOLÍ","tipo":"CM","longitud":-74.7574542879,"latitud":6.40985175825,"tipo_municipio":"MUNICIPIO"},
{"codigo_departamento":5,"codigo_municipio":5145,"codigo":5145000,"nombre":"CARAMANTA","tipo":"CM","longitud":-75.6438712654,"latitud":5.54853427166,"tipo_municipio":"MUNICIPIO"},
{"codigo_departamento":5,"codigo_municipio":5145,"codigo":5145001,"nombre":"ALEGRÍAS","tipo":"C","longitud":-75.6073941983,"latitud":5.54641839565,"tipo_municipio":"MUNICIPIO"},
{"codigo_departamento":5,"codigo_municipio":5145,"codigo":5145002,"nombre":"SUCRE","tipo":"C","longitud":-75.6065248474,"latitud":5.57974793058,"tipo_municipio":"MUNICIPIO"},
{"codigo_departamento":5,"codigo_municipio":5147,"codigo":5147000,"nombre":"CAREPA","tipo":"CM","longitud":-76.653210744,"latitud":7.75511548219,"tipo_municipio":"MUNICIPIO"},
{"codigo_departamento":5,"codigo_municipio":5147,"codigo":5147003,"nombre":"PIEDRAS BLANCAS","tipo":"C","longitud":-76.5562284024,"latitud":7.74577989739,"tipo_municipio":"MUNICIPIO"},
{"codigo_departamento":5,"codigo_municipio":5147,"codigo":5147004,"nombre":"ZUNGO EMBARCADERO - PUEBLO NUEVO","tipo":"CAS","longitud":-76.7392173134,"latitud":7.84715171701,"tipo_municipio":"MUNICIPIO"},
{"codigo_departamento":5,"codigo_municipio":5147,"codigo":5147005,"nombre":"ZUNGO EMBARCADERO - 11 DE NOVIEMBRE","tipo":"C","longitud":-76.7344914755,"latitud":7.84680282117,"tipo_municipio":"MUNICIPIO"},
{"codigo_departamento":5,"codigo_municipio":5147,"codigo":5147006,"nombre":"CASA VERDE","tipo":"CAS","longitud":-76.653759061,"latitud":7.78978994233,"tipo_municipio":"MUNICIPIO"},
{"codigo_departamento":5,"codigo_municipio":5147,"codigo":5147007,"nombre":"EL ENCANTO","tipo":"CAS","longitud":-76.7109174998,"latitud":7.74899011098,"tipo_municipio":"MUNICIPIO"},
{"codigo_departamento":5,"codigo_municipio":5147,"codigo":5147008,"nombre":"ZUNGO EMBARCADERO - 28 DE OCTUBRE","tipo":"C","longitud":-76.742764471,"latitud":7.850592915,"tipo_municipio":"MUNICIPIO"},
{"codigo_departamento":5,"codigo_municipio":5147,"codigo":5147009,"nombre":"BELENCITO","tipo":"CAS","longitud":-76.5082077256,"latitud":7.80125186108,"tipo_municipio":"MUNICIPIO"},
{"codigo_departamento":5,"codigo_municipio":5147,"codigo":5147010,"nombre":"BOSQUES DE LOS ALMENDROS","tipo":"CAS","longitud":-76.6495463448,"latitud":7.78935244553,"tipo_municipio":"MUNICIPIO"},
{"codigo_departamento":5,"codigo_municipio":5147,"codigo":5147011,"nombre":"CAREPITA CANALUNO","tipo":"CAS","longitud":-76.7542705229,"latitud":7.83124469386,"tipo_municipio":"MUNICIPIO"},
{"codigo_departamento":5,"codigo_municipio":5147,"codigo":5147012,"nombre":"SACRAMENTO LA LUCHA","tipo":"CAS","longitud":-76.661022529,"latitud":7.78955141902,"tipo_municipio":"MUNICIPIO"},
{"codigo_departamento":5,"codigo_municipio":5147,"codigo":5147013,"nombre":"LOS NARANJALES","tipo":"CP","longitud":-76.7132143331,"latitud":7.81945516892,"tipo_municipio":"MUNICIPIO"},
{"codigo_departamento":5,"codigo_municipio":5147,"codigo":5147014,"nombre":"VIJAGUAL","tipo":"CP","longitud":-76.656679386072,"latitud":7.7891756979624,"tipo_municipio":"MUNICIPIO"},
{"codigo_departamento":5,"codigo_municipio":5148,"codigo":5148000,"nombre":"EL CARMEN DE VIBORAL","tipo":"CM","longitud":-75.3342620232,"latitud":6.08347326731,"tipo_municipio":"MUNICIPIO"},
{"codigo_departamento":5,"codigo_municipio":5148,"codigo":5148003,"nombre":"AGUAS CLARAS","tipo":"CAS","longitud":-75.3771876174,"latitud":6.07301282203,"tipo_municipio":"MUNICIPIO"},
{"codigo_departamento":5,"codigo_municipio":5148,"codigo":5148005,"nombre":"LA CHAPA","tipo":"CAS","longitud":-75.3168904163,"latitud":6.05281368162,"tipo_municipio":"MUNICIPIO"},
{"codigo_departamento":5,"codigo_municipio":5148,"codigo":5148006,"nombre":"CAMPO ALEGRE","tipo":"CAS","longitud":-75.32545097,"latitud":6.060715741,"tipo_municipio":"MUNICIPIO"},
{"codigo_departamento":5,"codigo_municipio":5148,"codigo":5148008,"nombre":"LA AURORA - LAS BRISAS","tipo":"CAS","longitud":-75.3271209875,"latitud":6.0844366198,"tipo_municipio":"MUNICIPIO"},
{"codigo_departamento":5,"codigo_municipio":5150,"codigo":5150000,"nombre":"CAROLINA DEL PRÍNCIPE","tipo":"CM","longitud":-75.2831680463,"latitud":6.72597625966,"tipo_municipio":"MUNICIPIO"},
{"codigo_departamento":5,"codigo_municipio":5154,"codigo":5154000,"nombre":"CAUCASIA","tipo":"CM","longitud":-75.1982784645,"latitud":7.97734097812,"tipo_municipio":"MUNICIPIO"},
{"codigo_departamento":5,"codigo_municipio":5154,"codigo":5154003,"nombre":"CUTURÚ","tipo":"C","longitud":-74.7869656444,"latitud":7.72699366427,"tipo_municipio":"MUNICIPIO"},
{"codigo_departamento":5,"codigo_municipio":5154,"codigo":5154006,"nombre":"MARGENTO","tipo":"C","longitud":-74.9535389379,"latitud":8.03589878679,"tipo_municipio":"MUNICIPIO"},
{"codigo_departamento":5,"codigo_municipio":5154,"codigo":5154008,"nombre":"PALANCA","tipo":"C","longitud":-75.022198365,"latitud":8.00972265336,"tipo_municipio":"MUNICIPIO"},
{"codigo_departamento":5,"codigo_municipio":5154,"codigo":5154009,"nombre":"PALOMAR","tipo":"C","longitud":-74.9761394907,"latitud":8.00238112069,"tipo_municipio":"MUNICIPIO"},
{"codigo_departamento":5,"codigo_municipio":5154,"codigo":5154012,"nombre":"SANTA ROSITA","tipo":"C","longitud":-75.3257782225,"latitud":7.92144735737,"tipo_municipio":"MUNICIPIO"},
{"codigo_departamento":5,"codigo_municipio":5154,"codigo":5154020,"nombre":"PUERTO TRIANA","tipo":"C","longitud":-74.8929537788,"latitud":7.68376308283,"tipo_municipio":"MUNICIPIO"},
{"codigo_departamento":5,"codigo_municipio":5154,"codigo":5154022,"nombre":"LA ILUSIÓN","tipo":"C","longitud":-75.0903029571,"latitud":8.02308721467,"tipo_municipio":"MUNICIPIO"},
{"codigo_departamento":5,"codigo_municipio":5154,"codigo":5154023,"nombre":"CACERÍ","tipo":"C","longitud":-74.928558948,"latitud":7.802368325,"tipo_municipio":"MUNICIPIO"},
{"codigo_departamento":5,"codigo_municipio":5154,"codigo":5154024,"nombre":"EL PANDO","tipo":"C","longitud":-75.069703161,"latitud":7.793436993,"tipo_municipio":"MUNICIPIO"},
{"codigo_departamento":5,"codigo_municipio":5154,"codigo":5154025,"nombre":"CAMPO ALEGRE","tipo":"C","longitud":0,"latitud":0,"tipo_municipio":"MUNICIPIO"},
{"codigo_departamento":5,"codigo_municipio":5154,"codigo":5154026,"nombre":"EL CHINO","tipo":"CP","longitud":-75.0943609047,"latitud":8.00984831947,"tipo_municipio":"MUNICIPIO"},
{"codigo_departamento":5,"codigo_municipio":5154,"codigo":5154027,"nombre":"LA ESMERALDA","tipo":"CP","longitud":-75.13811568,"latitud":8.011782814,"tipo_municipio":"MUNICIPIO"},
{"codigo_departamento":5,"codigo_municipio":5154,"codigo":5154031,"nombre":"VILLA DEL SOCORRO","tipo":"CP","longitud":-75.0073134247,"latitud":8.04809014363,"tipo_municipio":"MUNICIPIO"},
{"codigo_departamento":5,"codigo_municipio":5154,"codigo":5154032,"nombre":"CASERÍO CONJUNTO CAÑA FISTULA","tipo":"CAS","longitud":-75.1648221088,"latitud":7.94982702026,"tipo_municipio":"MUNICIPIO"},
{"codigo_departamento":5,"codigo_municipio":5154,"codigo":5154033,"nombre":"PUEBLO NUEVO","tipo":"CP","longitud":-74.9595289543,"latitud":8.04058916019,"tipo_municipio":"MUNICIPIO"},
{"codigo_departamento":5,"codigo_municipio":5172,"codigo":5172000,"nombre":"CHIGORODÓ","tipo":"CM","longitud":-76.6812146131,"latitud":7.66630069082,"tipo_municipio":"MUNICIPIO"},
{"codigo_departamento":5,"codigo_municipio":5172,"codigo":5172003,"nombre":"BARRANQUILLITA","tipo":"C","longitud":-76.6964089022,"latitud":7.56986376573,"tipo_municipio":"MUNICIPIO"},
{"codigo_departamento":5,"codigo_municipio":5172,"codigo":5172007,"nombre":"GUAPÁ CARRETERAS","tipo":"CP","longitud":-76.6134442731,"latitud":7.55687371055,"tipo_municipio":"MUNICIPIO"},
{"codigo_departamento":5,"codigo_municipio":5172,"codigo":5172013,"nombre":"JURADÓ","tipo":"CP","longitud":-76.5803872063,"latitud":7.50111922505,"tipo_municipio":"MUNICIPIO"},
{"codigo_departamento":5,"codigo_municipio":5172,"codigo":5172014,"nombre":"CAMPITAS","tipo":"CP","longitud":0,"latitud":0,"tipo_municipio":"MUNICIPIO"},
{"codigo_departamento":5,"codigo_municipio":5172,"codigo":5172015,"nombre":"CHAMPITA SECTOR LA GRANJA","tipo":"CP","longitud":-76.6853431235,"latitud":7.64847537214,"tipo_municipio":"MUNICIPIO"},
{"codigo_departamento":5,"codigo_municipio":5190,"codigo":5190000,"nombre":"CISNEROS","tipo":"CM","longitud":-75.0872051341,"latitud":6.53776304826,"tipo_municipio":"MUNICIPIO"},
{"codigo_departamento":5,"codigo_municipio":5197,"codigo":5197000,"nombre":"COCORNÁ","tipo":"CM","longitud":-75.1854817244,"latitud":6.05830616761,"tipo_municipio":"MUNICIPIO"},
{"codigo_departamento":5,"codigo_municipio":5197,"codigo":5197005,"nombre":"LA PIÑUELA","tipo":"CP","longitud":-75.1411997988,"latitud":6.01116837974,"tipo_municipio":"MUNICIPIO"},
{"codigo_departamento":5,"codigo_municipio":5197,"codigo":5197013,"nombre":"EL MOLINO","tipo":"CP","longitud":-75.1563483865,"latitud":6.0588489277,"tipo_municipio":"MUNICIPIO"},
{"codigo_departamento":5,"codigo_municipio":5206,"codigo":5206000,"nombre":"CONCEPCIÓN","tipo":"CM","longitud":-75.257601243,"latitud":6.39435397644,"tipo_municipio":"MUNICIPIO"},
{"codigo_departamento":5,"codigo_municipio":5209,"codigo":5209000,"nombre":"CONCORDIA","tipo":"CM","longitud":-75.9084535194,"latitud":6.04608659615,"tipo_municipio":"MUNICIPIO"},
{"codigo_departamento":5,"codigo_municipio":5209,"codigo":5209001,"nombre":"EL SOCORRO","tipo":"C","longitud":-75.9011555068,"latitud":6.12129187016,"tipo_municipio":"MUNICIPIO"},
{"codigo_departamento":5,"codigo_municipio":5209,"codigo":5209006,"nombre":"EL GOLPE","tipo":"IP","longitud":-75.8410720385,"latitud":6.00681431959,"tipo_municipio":"MUNICIPIO"},
{"codigo_departamento":5,"codigo_municipio":5209,"codigo":5209007,"nombre":"SALAZAR","tipo":"CAS","longitud":-75.909595184,"latitud":6.03847505318,"tipo_municipio":"MUNICIPIO"},
{"codigo_departamento":5,"codigo_municipio":5212,"codigo":5212000,"nombre":"COPACABANA","tipo":"CM","longitud":-75.5093435119,"latitud":6.34863947056,"tipo_municipio":"MUNICIPIO"},
{"codigo_departamento":5,"codigo_municipio":5212,"codigo":5212005,"nombre":"EL SALADO","tipo":"CP","longitud":-75.4909824285,"latitud":6.34739670939,"tipo_municipio":"MUNICIPIO"},
{"codigo_departamento":5,"codigo_municipio":5212,"codigo":5212008,"nombre":"CABUYAL","tipo":"CP","longitud":-75.4998999379,"latitud":6.32796570457,"tipo_municipio":"MUNICIPIO"},
{"codigo_departamento":5,"codigo_municipio":5212,"codigo":5212011,"nombre":"ZARZAL (LA LUZ)","tipo":"CAS","longitud":0,"latitud":0,"tipo_municipio":"MUNICIPIO"},
{"codigo_departamento":5,"codigo_municipio":5212,"codigo":5212017,"nombre":"EL LLANO","tipo":"CP","longitud":-75.5164441998,"latitud":6.33077934964,"tipo_municipio":"MUNICIPIO"},
{"codigo_departamento":5,"codigo_municipio":5212,"codigo":5212018,"nombre":"EL CONVENTO","tipo":"CP","longitud":0,"latitud":0,"tipo_municipio":"MUNICIPIO"},
{"codigo_departamento":5,"codigo_municipio":5212,"codigo":5212019,"nombre":"EL NORAL","tipo":"CP","longitud":0,"latitud":0,"tipo_municipio":"MUNICIPIO"},
{"codigo_departamento":5,"codigo_municipio":5234,"codigo":5234000,"nombre":"DABEIBA","tipo":"CM","longitud":-76.2616178227,"latitud":6.99811575168,"tipo_municipio":"MUNICIPIO"},
{"codigo_departamento":5,"codigo_municipio":5234,"codigo":5234004,"nombre":"SAN JOSÉ DE URAMA","tipo":"C","longitud":-76.1447495866,"latitud":7.01748602801,"tipo_municipio":"MUNICIPIO"},
{"codigo_departamento":5,"codigo_municipio":5234,"codigo":5234008,"nombre":"ARMENIA - CAMPARRUSIA","tipo":"C","longitud":-76.0371095195,"latitud":7.00053526665,"tipo_municipio":"MUNICIPIO"},
{"codigo_departamento":5,"codigo_municipio":5234,"codigo":5234010,"nombre":"LAS CRUCES DE URAMA","tipo":"IP","longitud":-76.199549721,"latitud":7.01850899,"tipo_municipio":"MUNICIPIO"},
{"codigo_departamento":5,"codigo_municipio":5234,"codigo":5234012,"nombre":"CHIMIADÓ LLANO GRANDE","tipo":"IP","longitud":-76.2447979776,"latitud":7.07500811292,"tipo_municipio":"MUNICIPIO"},
{"codigo_departamento":5,"codigo_municipio":5234,"codigo":5234014,"nombre":"EL BOTÓN","tipo":"CAS","longitud":-76.2555117465,"latitud":6.9245500249,"tipo_municipio":"MUNICIPIO"},
{"codigo_departamento":5,"codigo_municipio":5234,"codigo":5234017,"nombre":"BETANIA PUENTE NUEVO","tipo":"CAS","longitud":-76.0470325028,"latitud":6.98935679418,"tipo_municipio":"MUNICIPIO"},
{"codigo_departamento":5,"codigo_municipio":5234,"codigo":5234018,"nombre":"CARA COLÓN","tipo":"CAS","longitud":-76.2704649307,"latitud":7.02835068581,"tipo_municipio":"MUNICIPIO"},
{"codigo_departamento":5,"codigo_municipio":5234,"codigo":5234019,"nombre":"LA BALSITA","tipo":"CAS","longitud":-76.124718261,"latitud":7.05449654632,"tipo_municipio":"MUNICIPIO"},
{"codigo_departamento":5,"codigo_municipio":5237,"codigo":5237000,"nombre":"DONMATÍAS","tipo":"CM","longitud":-75.3926751288,"latitud":6.48560723899,"tipo_municipio":"MUNICIPIO"},
{"codigo_departamento":5,"codigo_municipio":5237,"codigo":5237001,"nombre":"BELLAVISTA","tipo":"C","longitud":-75.2849747375,"latitud":6.54011032418,"tipo_municipio":"MUNICIPIO"},
{"codigo_departamento":5,"codigo_municipio":5237,"codigo":5237003,"nombre":"ARENALES","tipo":"C","longitud":-75.251853577,"latitud":6.543935143,"tipo_municipio":"MUNICIPIO"},
{"codigo_departamento":5,"codigo_municipio":5237,"codigo":5237004,"nombre":"MONTERA","tipo":"C","longitud":-75.2851490372,"latitud":6.50658987639,"tipo_municipio":"MUNICIPIO"},
{"codigo_departamento":5,"codigo_municipio":5237,"codigo":5237005,"nombre":"PRADERA","tipo":"C","longitud":-75.2649945061,"latitud":6.51088257229,"tipo_municipio":"MUNICIPIO"},
{"codigo_departamento":5,"codigo_municipio":5240,"codigo":5240000,"nombre":"EBÉJICO","tipo":"CM","longitud":-75.7662136607,"latitud":6.32605663471,"tipo_municipio":"MUNICIPIO"},
{"codigo_departamento":5,"codigo_municipio":5240,"codigo":5240001,"nombre":"BRASIL","tipo":"C","longitud":-75.732453331,"latitud":6.33973410464,"tipo_municipio":"MUNICIPIO"},
{"codigo_departamento":5,"codigo_municipio":5240,"codigo":5240003,"nombre":"SEVILLA","tipo":"C","longitud":-75.7846152045,"latitud":6.29426440239,"tipo_municipio":"MUNICIPIO"},
{"codigo_departamento":5,"codigo_municipio":5240,"codigo":5240008,"nombre":"EL ZARZAL","tipo":"IP","longitud":-75.754771225,"latitud":6.30688543447,"tipo_municipio":"MUNICIPIO"},
{"codigo_departamento":5,"codigo_municipio":5240,"codigo":5240011,"nombre":"LA CLARA","tipo":"C","longitud":-75.7608971041,"latitud":6.27842612805,"tipo_municipio":"MUNICIPIO"},
{"codigo_departamento":5,"codigo_municipio":5240,"codigo":5240012,"nombre":"FATIMA","tipo":"CP","longitud":-75.7695505855,"latitud":6.31834205819,"tipo_municipio":"MUNICIPIO"},
{"codigo_departamento":5,"codigo_municipio":5250,"codigo":5250000,"nombre":"EL BAGRE","tipo":"CM","longitud":-74.7990970119,"latitud":7.5975218855,"tipo_municipio":"MUNICIPIO"},
{"codigo_departamento":5,"codigo_municipio":5250,"codigo":5250002,"nombre":"PUERTO CLAVER","tipo":"C","longitud":-74.7524970997,"latitud":7.71154610699,"tipo_municipio":"MUNICIPIO"},
{"codigo_departamento":5,"codigo_municipio":5250,"codigo":5250004,"nombre":"PUERTO LÓPEZ","tipo":"CP","longitud":-74.6893927759,"latitud":7.43871554654,"tipo_municipio":"MUNICIPIO"},
{"codigo_departamento":5,"codigo_municipio":5250,"codigo":5250005,"nombre":"EL REAL","tipo":"C","longitud":-74.7830708878,"latitud":7.62461882212,"tipo_municipio":"MUNICIPIO"},
{"codigo_departamento":5,"codigo_municipio":5250,"codigo":5250006,"nombre":"LA CORONA","tipo":"C","longitud":-74.6713830396,"latitud":7.63119767791,"tipo_municipio":"MUNICIPIO"},
{"codigo_departamento":5,"codigo_municipio":5250,"codigo":5250007,"nombre":"LAS NEGRITAS","tipo":"C","longitud":-74.6885942324,"latitud":7.46443717172,"tipo_municipio":"MUNICIPIO"},
{"codigo_departamento":5,"codigo_municipio":5250,"codigo":5250008,"nombre":"LAS SARDINAS EL PUENTE","tipo":"C","longitud":-74.8028131591,"latitud":7.56226477398,"tipo_municipio":"MUNICIPIO"},
{"codigo_departamento":5,"codigo_municipio":5250,"codigo":5250009,"nombre":"SANTA BÁRBARA","tipo":"C","longitud":-74.7090417422,"latitud":7.82432870689,"tipo_municipio":"MUNICIPIO"},
{"codigo_departamento":5,"codigo_municipio":5250,"codigo":5250010,"nombre":"MUQUI","tipo":"C","longitud":-74.69987278,"latitud":7.79237917622,"tipo_municipio":"MUNICIPIO"},
{"codigo_departamento":5,"codigo_municipio":5250,"codigo":5250011,"nombre":"BORRACHERA","tipo":"C","longitud":-74.7566006206,"latitud":7.54502571013,"tipo_municipio":"MUNICIPIO"},
{"codigo_departamento":5,"codigo_municipio":5250,"codigo":5250012,"nombre":"CAÑO CLARO","tipo":"C","longitud":-74.6956978475,"latitud":7.47530399521,"tipo_municipio":"MUNICIPIO"},
{"codigo_departamento":5,"codigo_municipio":5250,"codigo":5250013,"nombre":"LOS ALMENDROS","tipo":"C","longitud":-74.6821016981,"latitud":7.46497197764,"tipo_municipio":"MUNICIPIO"},
{"codigo_departamento":5,"codigo_municipio":5264,"codigo":5264000,"nombre":"ENTRERRÍOS","tipo":"CM","longitud":-75.517805693,"latitud":6.56648234736,"tipo_municipio":"MUNICIPIO"},
{"codigo_departamento":5,"codigo_municipio":5266,"codigo":5266000,"nombre":"ENVIGADO","tipo":"CM","longitud":-75.5830089369,"latitud":6.16700589298,"tipo_municipio":"MUNICIPIO"},
{"codigo_departamento":5,"codigo_municipio":5266,"codigo":5266001,"nombre":"LAS PALMAS","tipo":"CP","longitud":-75.533586318,"latitud":6.15349984574,"tipo_municipio":"MUNICIPIO"},
{"codigo_departamento":5,"codigo_municipio":5266,"codigo":5266005,"nombre":"EL CRISTO","tipo":"CP","longitud":-75.5785142778,"latitud":6.14481100207,"tipo_municipio":"MUNICIPIO"},
{"codigo_departamento":5,"codigo_municipio":5266,"codigo":5266006,"nombre":"EL CHINGUI  2","tipo":"CP","longitud":-75.574676692,"latitud":6.150482011,"tipo_municipio":"MUNICIPIO"},
{"codigo_departamento":5,"codigo_municipio":5266,"codigo":5266007,"nombre":"LA ÚLTIMA COPA","tipo":"CP","longitud":-75.5737423272,"latitud":6.14188336184,"tipo_municipio":"MUNICIPIO"},
{"codigo_departamento":5,"codigo_municipio":5266,"codigo":5266008,"nombre":"PARCELACIÓN LA ACUARELA","tipo":"CP","longitud":-75.5261210306,"latitud":6.16704340246,"tipo_municipio":"MUNICIPIO"},
{"codigo_departamento":5,"codigo_municipio":5266,"codigo":5266009,"nombre":"PARCELACIÓN ALAMOS DEL ESCOBERO","tipo":"CP","longitud":-75.5692083393,"latitud":6.15161828496,"tipo_municipio":"MUNICIPIO"},
{"codigo_departamento":5,"codigo_municipio":5266,"codigo":5266010,"nombre":"PARCELACIÓN ALDEA DE PALMA VERDE","tipo":"CP","longitud":-75.535739591,"latitud":6.14841133313,"tipo_municipio":"MUNICIPIO"},
{"codigo_departamento":5,"codigo_municipio":5266,"codigo":5266011,"nombre":"PARCELACIÓN CONDOMINIO CAMPESTRE SERRANÍA","tipo":"CP","longitud":-75.5223860851,"latitud":6.16135234202,"tipo_municipio":"MUNICIPIO"},
{"codigo_departamento":5,"codigo_municipio":5266,"codigo":5266012,"nombre":"PARCELACIÓN CASAS BELLO MONTE","tipo":"CP","longitud":-75.5196151642,"latitud":6.15556124498,"tipo_municipio":"MUNICIPIO"},
{"codigo_departamento":5,"codigo_municipio":5266,"codigo":5266013,"nombre":"PARCELACIÓN FIORE CASAS DE CAMPO","tipo":"CP","longitud":-75.5658618945,"latitud":6.15537460925,"tipo_municipio":"MUNICIPIO"},
{"codigo_departamento":5,"codigo_municipio":5266,"codigo":5266014,"nombre":"PARCELACIÓN CONJUNTO RESIDENCIAL BELLA TIERRA","tipo":"CP","longitud":-75.5191948893,"latitud":6.16290931364,"tipo_municipio":"MUNICIPIO"},
{"codigo_departamento":5,"codigo_municipio":5266,"codigo":5266015,"nombre":"PARCELACIÓN ENCENILLOS","tipo":"CP","longitud":-75.5285621357,"latitud":6.17732623574,"tipo_municipio":"MUNICIPIO"},
{"codigo_departamento":5,"codigo_municipio":5266,"codigo":5266016,"nombre":"PARCELACIÓN ESCOBERO","tipo":"CP","longitud":-75.5591895876,"latitud":6.14488369339,"tipo_municipio":"MUNICIPIO"},
{"codigo_departamento":5,"codigo_municipio":5266,"codigo":5266017,"nombre":"PARCELACIÓN HACIENDA ARRAYANES","tipo":"CP","longitud":-75.5375249829,"latitud":6.16601672527,"tipo_municipio":"MUNICIPIO"},
{"codigo_departamento":5,"codigo_municipio":5266,"codigo":5266018,"nombre":"PARCELACIÓN LAS PALMITAS","tipo":"CP","longitud":-75.5124898764,"latitud":6.1569905391,"tipo_municipio":"MUNICIPIO"},
{"codigo_departamento":5,"codigo_municipio":5266,"codigo":5266019,"nombre":"PARCELACIÓN LEMONT","tipo":"CP","longitud":0,"latitud":0,"tipo_municipio":"MUNICIPIO"},
{"codigo_departamento":5,"codigo_municipio":5266,"codigo":5266020,"nombre":"PARCELACIÓN PRADO LARGO","tipo":"CP","longitud":-75.5273550365,"latitud":6.15811880391,"tipo_municipio":"MUNICIPIO"},
{"codigo_departamento":5,"codigo_municipio":5266,"codigo":5266021,"nombre":"PARCELACIÓN SAN SEBASTIÁN","tipo":"CP","longitud":0,"latitud":0,"tipo_municipio":"MUNICIPIO"},
{"codigo_departamento":5,"codigo_municipio":5266,"codigo":5266022,"nombre":"PARCELACIÓN TORRE LUNERA","tipo":"CP","longitud":-75.5212887458,"latitud":6.15414538426,"tipo_municipio":"MUNICIPIO"},
{"codigo_departamento":5,"codigo_municipio":5266,"codigo":5266023,"nombre":"PARCELACIÓN URBANIZACIÓN PAPIROS","tipo":"CP","longitud":-75.5231694146,"latitud":6.14775583535,"tipo_municipio":"MUNICIPIO"},
{"codigo_departamento":5,"codigo_municipio":5266,"codigo":5266024,"nombre":"PARCELACIÓN VERANDA","tipo":"CP","longitud":-75.5292400569,"latitud":6.14241753872,"tipo_municipio":"MUNICIPIO"},
{"codigo_departamento":5,"codigo_municipio":5266,"codigo":5266025,"nombre":"PARCELACIÓN VILLAS DE LA CANDELARIA","tipo":"CP","longitud":-75.5508465864,"latitud":6.1556178499,"tipo_municipio":"MUNICIPIO"},
{"codigo_departamento":5,"codigo_municipio":5282,"codigo":5282000,"nombre":"FREDONIA","tipo":"CM","longitud":-75.6750932516,"latitud":5.9280855467,"tipo_municipio":"MUNICIPIO"},
{"codigo_departamento":5,"codigo_municipio":5282,"codigo":5282002,"nombre":"LOS PALOMOS","tipo":"C","longitud":-75.6771186918,"latitud":5.9675356089,"tipo_municipio":"MUNICIPIO"},
{"codigo_departamento":5,"codigo_municipio":5282,"codigo":5282003,"nombre":"MINAS","tipo":"C","longitud":-75.7378381922,"latitud":5.92641146903,"tipo_municipio":"MUNICIPIO"},
{"codigo_departamento":5,"codigo_municipio":5282,"codigo":5282004,"nombre":"PUENTE IGLESIAS","tipo":"IP","longitud":-75.7074789765,"latitud":5.83070645181,"tipo_municipio":"MUNICIPIO"},
{"codigo_departamento":5,"codigo_municipio":5282,"codigo":5282005,"nombre":"MARSELLA","tipo":"C","longitud":-75.6877236332,"latitud":5.86302162697,"tipo_municipio":"MUNICIPIO"},
{"codigo_departamento":5,"codigo_municipio":5282,"codigo":5282008,"nombre":"EL ZANCUDO","tipo":"IP","longitud":-75.6559200786,"latitud":5.89042535175,"tipo_municipio":"MUNICIPIO"},
{"codigo_departamento":5,"codigo_municipio":5284,"codigo":5284000,"nombre":"FRONTINO","tipo":"CM","longitud":-76.1307652118,"latitud":6.77606285319,"tipo_municipio":"MUNICIPIO"},
{"codigo_departamento":5,"codigo_municipio":5284,"codigo":5284004,"nombre":"MURRI - LA BLANQUITA","tipo":"C","longitud":-76.3678881631,"latitud":6.74356441203,"tipo_municipio":"MUNICIPIO"},
{"codigo_departamento":5,"codigo_municipio":5284,"codigo":5284005,"nombre":"MUSINGA - TABLADITO","tipo":"C","longitud":-76.2043157039,"latitud":6.77291162077,"tipo_municipio":"MUNICIPIO"},
{"codigo_departamento":5,"codigo_municipio":5284,"codigo":5284006,"nombre":"NUTIBARA","tipo":"C","longitud":-76.2474711999,"latitud":6.80453407536,"tipo_municipio":"MUNICIPIO"},
{"codigo_departamento":5,"codigo_municipio":5284,"codigo":5284007,"nombre":"PONTÓN","tipo":"C","longitud":-76.093071216,"latitud":6.74126729,"tipo_municipio":"MUNICIPIO"},
{"codigo_departamento":5,"codigo_municipio":5284,"codigo":5284010,"nombre":"SAN LAZARO","tipo":"CAS","longitud":-76.14974073,"latitud":6.737042163,"tipo_municipio":"MUNICIPIO"},
{"codigo_departamento":5,"codigo_municipio":5284,"codigo":5284012,"nombre":"JENGAMECODA","tipo":"C","longitud":0,"latitud":0,"tipo_municipio":"MUNICIPIO"},
{"codigo_departamento":5,"codigo_municipio":5306,"codigo":5306000,"nombre":"GIRALDO","tipo":"CM","longitud":-75.9521573015,"latitud":6.68080793863,"tipo_municipio":"MUNICIPIO"},
{"codigo_departamento":5,"codigo_municipio":5306,"codigo":5306001,"nombre":"MANGLAR","tipo":"C","longitud":-75.9489403204,"latitud":6.69434923744,"tipo_municipio":"MUNICIPIO"},
{"codigo_departamento":5,"codigo_municipio":5308,"codigo":5308000,"nombre":"GIRARDOTA","tipo":"CM","longitud":-75.4444597681,"latitud":6.37961535607,"tipo_municipio":"MUNICIPIO"},
{"codigo_departamento":5,"codigo_municipio":5308,"codigo":5308002,"nombre":"SAN ANDRÉS","tipo":"CP","longitud":-75.4400142661,"latitud":6.39872278764,"tipo_municipio":"MUNICIPIO"},
{"codigo_departamento":5,"codigo_municipio":5308,"codigo":5308004,"nombre":"LA PALMA","tipo":"CP","longitud":-75.4281496928,"latitud":6.40726606515,"tipo_municipio":"MUNICIPIO"},
{"codigo_departamento":5,"codigo_municipio":5308,"codigo":5308009,"nombre":"CABILDO","tipo":"CP","longitud":-75.4271606061,"latitud":6.39049075847,"tipo_municipio":"MUNICIPIO"},
{"codigo_departamento":5,"codigo_municipio":5308,"codigo":5308010,"nombre":"LAS CUCHILLAS","tipo":"CP","longitud":-75.4559864522,"latitud":6.36876504083,"tipo_municipio":"MUNICIPIO"},
{"codigo_departamento":5,"codigo_municipio":5308,"codigo":5308011,"nombre":"JAMUNDÍ - ESCUELAS","tipo":"CP","longitud":-75.4367562151,"latitud":6.36643260991,"tipo_municipio":"MUNICIPIO"},
{"codigo_departamento":5,"codigo_municipio":5308,"codigo":5308012,"nombre":"JUAN COJO","tipo":"CP","longitud":-75.4536642667,"latitud":6.35895766818,"tipo_municipio":"MUNICIPIO"},
{"codigo_departamento":5,"codigo_municipio":5308,"codigo":5308013,"nombre":"LA CALLE","tipo":"CP","longitud":-75.4338494607,"latitud":6.40329376032,"tipo_municipio":"MUNICIPIO"},
{"codigo_departamento":5,"codigo_municipio":5308,"codigo":5308014,"nombre":"SAN ESTEBAN","tipo":"CP","longitud":-75.468130832,"latitud":6.385726196,"tipo_municipio":"MUNICIPIO"},
{"codigo_departamento":5,"codigo_municipio":5308,"codigo":5308015,"nombre":"EL PARAISO","tipo":"CP","longitud":-75.4624319086,"latitud":6.38808319262,"tipo_municipio":"MUNICIPIO"},
{"codigo_departamento":5,"codigo_municipio":5308,"codigo":5308016,"nombre":"JAMUNDÍ - RIELES","tipo":"CP","longitud":-75.4349415833,"latitud":6.36902634082,"tipo_municipio":"MUNICIPIO"},
{"codigo_departamento":5,"codigo_municipio":5308,"codigo":5308017,"nombre":"LOMA DE LOS OCHOA","tipo":"CP","longitud":-75.4558638433,"latitud":6.39081807068,"tipo_municipio":"MUNICIPIO"},
{"codigo_departamento":5,"codigo_municipio":5310,"codigo":5310000,"nombre":"GÓMEZ PLATA","tipo":"CM","longitud":-75.2200360918,"latitud":6.68327964232,"tipo_municipio":"MUNICIPIO"},
{"codigo_departamento":5,"codigo_municipio":5310,"codigo":5310001,"nombre":"EL SALTO","tipo":"C","longitud":-75.238559048,"latitud":6.7824580786,"tipo_municipio":"MUNICIPIO"},
{"codigo_departamento":5,"codigo_municipio":5310,"codigo":5310002,"nombre":"SAN MATÍAS","tipo":"C","longitud":-75.1921618466,"latitud":6.77005112202,"tipo_municipio":"MUNICIPIO"},
{"codigo_departamento":5,"codigo_municipio":5310,"codigo":5310004,"nombre":"VEGA DE BOTERO","tipo":"C","longitud":-75.1378831847,"latitud":6.73065697137,"tipo_municipio":"MUNICIPIO"},
{"codigo_departamento":5,"codigo_municipio":5313,"codigo":5313000,"nombre":"GRANADA","tipo":"CM","longitud":-75.1844500639,"latitud":6.1429023597,"tipo_municipio":"MUNICIPIO"},
{"codigo_departamento":5,"codigo_municipio":5313,"codigo":5313001,"nombre":"SANTA ANA","tipo":"C","longitud":-75.1010899349,"latitud":6.07333829996,"tipo_municipio":"MUNICIPIO"},
{"codigo_departamento":5,"codigo_municipio":5313,"codigo":5313004,"nombre":"LOS MEDIOS","tipo":"IP","longitud":-75.0858061584,"latitud":6.13841366437,"tipo_municipio":"MUNICIPIO"},
{"codigo_departamento":5,"codigo_municipio":5315,"codigo":5315000,"nombre":"GUADALUPE","tipo":"CM","longitud":-75.2398564806,"latitud":6.81506996357,"tipo_municipio":"MUNICIPIO"},
{"codigo_departamento":5,"codigo_municipio":5315,"codigo":5315002,"nombre":"GUANTEROS","tipo":"C","longitud":-75.21707639,"latitud":6.843874832,"tipo_municipio":"MUNICIPIO"},
{"codigo_departamento":5,"codigo_municipio":5315,"codigo":5315007,"nombre":"GUADALUPE IV","tipo":"IP","longitud":-75.203287377,"latitud":6.827629499,"tipo_municipio":"MUNICIPIO"},
{"codigo_departamento":5,"codigo_municipio":5315,"codigo":5315008,"nombre":"BARRIO NUEVO","tipo":"C","longitud":-75.199588286,"latitud":6.834134372,"tipo_municipio":"MUNICIPIO"},
{"codigo_departamento":5,"codigo_municipio":5315,"codigo":5315009,"nombre":"EL MACHETE","tipo":"C","longitud":-75.21361797,"latitud":6.809685872,"tipo_municipio":"MUNICIPIO"},
{"codigo_departamento":5,"codigo_municipio":5318,"codigo":5318000,"nombre":"GUARNE","tipo":"CM","longitud":-75.4416535712,"latitud":6.27802696108,"tipo_municipio":"MUNICIPIO"},
{"codigo_departamento":5,"codigo_municipio":5318,"codigo":5318006,"nombre":"CHAPARRAL","tipo":"CP","longitud":-75.3978826706,"latitud":6.2304215398,"tipo_municipio":"MUNICIPIO"},
{"codigo_departamento":5,"codigo_municipio":5318,"codigo":5318007,"nombre":"SAN IGNACIO","tipo":"C","longitud":-75.4822247347,"latitud":6.20952770832,"tipo_municipio":"MUNICIPIO"},
{"codigo_departamento":5,"codigo_municipio":5321,"codigo":5321000,"nombre":"GUATAPÉ","tipo":"CM","longitud":-75.1600208818,"latitud":6.23240969843,"tipo_municipio":"MUNICIPIO"},
{"codigo_departamento":5,"codigo_municipio":5321,"codigo":5321001,"nombre":"EL ROBLE","tipo":"CAS","longitud":-75.1530293132,"latitud":6.23869856728,"tipo_municipio":"MUNICIPIO"},
{"codigo_departamento":5,"codigo_municipio":5347,"codigo":5347000,"nombre":"HELICONIA","tipo":"CM","longitud":-75.7343322889,"latitud":6.20676229056,"tipo_municipio":"MUNICIPIO"},
{"codigo_departamento":5,"codigo_municipio":5347,"codigo":5347001,"nombre":"ALTO DEL CORRAL","tipo":"C","longitud":-75.7729858649,"latitud":6.20383835521,"tipo_municipio":"MUNICIPIO"},
{"codigo_departamento":5,"codigo_municipio":5347,"codigo":5347002,"nombre":"PUEBLITO","tipo":"C","longitud":-75.72116102,"latitud":6.167032926,"tipo_municipio":"MUNICIPIO"},
{"codigo_departamento":5,"codigo_municipio":5347,"codigo":5347003,"nombre":"LLANOS DE SAN JOSÉ","tipo":"C","longitud":-75.7503471036,"latitud":6.25162596302,"tipo_municipio":"MUNICIPIO"},
{"codigo_departamento":5,"codigo_municipio":5347,"codigo":5347009,"nombre":"GUAMAL","tipo":"CP","longitud":-75.7400497164,"latitud":6.1610614324,"tipo_municipio":"MUNICIPIO"},
{"codigo_departamento":5,"codigo_municipio":5353,"codigo":5353000,"nombre":"HISPANIA","tipo":"CM","longitud":-75.906590966,"latitud":5.79946280832,"tipo_municipio":"MUNICIPIO"},
{"codigo_departamento":5,"codigo_municipio":5360,"codigo":5360000,"nombre":"ITAGÜÍ","tipo":"CM","longitud":-75.6120815283,"latitud":6.174929734,"tipo_municipio":"MUNICIPIO"},
{"codigo_departamento":5,"codigo_municipio":5360,"codigo":5360001,"nombre":"LOS GÓMEZ","tipo":"CP","longitud":-75.6109065213,"latitud":6.19110446222,"tipo_municipio":"MUNICIPIO"},
{"codigo_departamento":5,"codigo_municipio":5360,"codigo":5360003,"nombre":"EL AJIZAL","tipo":"CP","longitud":-75.6070083726,"latitud":6.19405938271,"tipo_municipio":"MUNICIPIO"},
{"codigo_departamento":5,"codigo_municipio":5360,"codigo":5360006,"nombre":"EL PEDREGAL","tipo":"CP","longitud":-75.6173195249,"latitud":6.18933422521,"tipo_municipio":"MUNICIPIO"},
{"codigo_departamento":5,"codigo_municipio":5360,"codigo":5360012,"nombre":"EL PORVENIR","tipo":"CP","longitud":-75.6000740382,"latitud":6.19491052307,"tipo_municipio":"MUNICIPIO"},
{"codigo_departamento":5,"codigo_municipio":5360,"codigo":5360013,"nombre":"EL PROGRESO","tipo":"CP","longitud":-75.61441259,"latitud":6.18622795255,"tipo_municipio":"MUNICIPIO"},
{"codigo_departamento":5,"codigo_municipio":5360,"codigo":5360014,"nombre":"LA MARÍA","tipo":"CP","longitud":-75.6271385514,"latitud":6.17827015677,"tipo_municipio":"MUNICIPIO"},
{"codigo_departamento":5,"codigo_municipio":5361,"codigo":5361000,"nombre":"ITUANGO","tipo":"CM","longitud":-75.7646752276,"latitud":7.17163748398,"tipo_municipio":"MUNICIPIO"},
{"codigo_departamento":5,"codigo_municipio":5361,"codigo":5361001,"nombre":"BADILLO","tipo":"CAS","longitud":0,"latitud":0,"tipo_municipio":"MUNICIPIO"},
{"codigo_departamento":5,"codigo_municipio":5361,"codigo":5361002,"nombre":"EL ARO - BUILÓPOLIS","tipo":"CAS","longitud":-75.5192577037,"latitud":7.24912731388,"tipo_municipio":"MUNICIPIO"},
{"codigo_departamento":5,"codigo_municipio":5361,"codigo":5361003,"nombre":"LA GRANJA","tipo":"C","longitud":-75.7222994185,"latitud":7.28672290276,"tipo_municipio":"MUNICIPIO"},
{"codigo_departamento":5,"codigo_municipio":5361,"codigo":5361004,"nombre":"PASCUITA","tipo":"CP","longitud":-75.6537560031,"latitud":7.1912924355,"tipo_municipio":"MUNICIPIO"},
{"codigo_departamento":5,"codigo_municipio":5361,"codigo":5361005,"nombre":"SANTA ANA","tipo":"CAS","longitud":-75.8691726128,"latitud":7.16284047826,"tipo_municipio":"MUNICIPIO"},
{"codigo_departamento":5,"codigo_municipio":5361,"codigo":5361006,"nombre":"SANTA LUCÍA","tipo":"CAS","longitud":-75.825223106,"latitud":7.31394816586,"tipo_municipio":"MUNICIPIO"},
{"codigo_departamento":5,"codigo_municipio":5361,"codigo":5361007,"nombre":"SANTA RITA","tipo":"C","longitud":-75.6160434939,"latitud":7.32072659077,"tipo_municipio":"MUNICIPIO"},
{"codigo_departamento":5,"codigo_municipio":5361,"codigo":5361018,"nombre":"PÍO X","tipo":"CP","longitud":-75.7650693542,"latitud":7.18325608248,"tipo_municipio":"MUNICIPIO"},
{"codigo_departamento":5,"codigo_municipio":5364,"codigo":5364000,"nombre":"JARDÍN","tipo":"CM","longitud":-75.8189807815,"latitud":5.59753984677,"tipo_municipio":"MUNICIPIO"},
{"codigo_departamento":5,"codigo_municipio":5364,"codigo":5364001,"nombre":"CRISTIANÍA","tipo":"IP","longitud":-75.8707243323,"latitud":5.62814324744,"tipo_municipio":"MUNICIPIO"},
{"codigo_departamento":5,"codigo_municipio":5364,"codigo":5364002,"nombre":"LA ARBOLEDA - LAS MACANAS","tipo":"IP","longitud":-75.8567990342,"latitud":5.58686624145,"tipo_municipio":"MUNICIPIO"},
{"codigo_departamento":5,"codigo_municipio":5364,"codigo":5364006,"nombre":"QUEBRADA BONITA","tipo":"CP","longitud":-75.8036271178,"latitud":5.58998157652,"tipo_municipio":"MUNICIPIO"},
{"codigo_departamento":5,"codigo_municipio":5368,"codigo":5368000,"nombre":"JERICÓ","tipo":"CM","longitud":-75.7855038531,"latitud":5.78974203756,"tipo_municipio":"MUNICIPIO"},
{"codigo_departamento":5,"codigo_municipio":5368,"codigo":5368005,"nombre":"GUACAMAYAL","tipo":"CAS","longitud":-75.780013578,"latitud":5.797506684,"tipo_municipio":"MUNICIPIO"},
{"codigo_departamento":5,"codigo_municipio":5368,"codigo":5368007,"nombre":"LOS PATIOS","tipo":"CAS","longitud":-75.7720623657,"latitud":5.78996091595,"tipo_municipio":"MUNICIPIO"},
{"codigo_departamento":5,"codigo_municipio":5376,"codigo":5376000,"nombre":"LA CEJA","tipo":"CM","longitud":-75.4294329272,"latitud":6.02805465836,"tipo_municipio":"MUNICIPIO"},
{"codigo_departamento":5,"codigo_municipio":5376,"codigo":5376002,"nombre":"EL TAMBO","tipo":"CAS","longitud":-75.4355940349,"latitud":6.01374935957,"tipo_municipio":"MUNICIPIO"},
{"codigo_departamento":5,"codigo_municipio":5376,"codigo":5376003,"nombre":"SAN JOSÉ","tipo":"CAS","longitud":-75.4890559864,"latitud":5.9655040555,"tipo_municipio":"MUNICIPIO"},
{"codigo_departamento":5,"codigo_municipio":5376,"codigo":5376005,"nombre":"SAN NICOLÁS","tipo":"CAS","longitud":-75.427775421,"latitud":6.047529881,"tipo_municipio":"MUNICIPIO"},
{"codigo_departamento":5,"codigo_municipio":5376,"codigo":5376006,"nombre":"SAN JUDAS","tipo":"CAS","longitud":-75.3887612776,"latitud":6.0547981006,"tipo_municipio":"MUNICIPIO"},
{"codigo_departamento":5,"codigo_municipio":5376,"codigo":5376008,"nombre":"TOLEDO","tipo":"CAS","longitud":-75.3849450646,"latitud":6.05447591565,"tipo_municipio":"MUNICIPIO"},
{"codigo_departamento":5,"codigo_municipio":5380,"codigo":5380000,"nombre":"LA ESTRELLA","tipo":"CM","longitud":-75.645190382,"latitud":6.15841993,"tipo_municipio":"MUNICIPIO"},
{"codigo_departamento":5,"codigo_municipio":5380,"codigo":5380007,"nombre":"LA TABLACITA","tipo":"CP","longitud":-75.6281533252,"latitud":6.12643518037,"tipo_municipio":"MUNICIPIO"},
{"codigo_departamento":5,"codigo_municipio":5380,"codigo":5380008,"nombre":"SAGRADA FAMILIA","tipo":"CP","longitud":-75.6270852126,"latitud":6.11667899845,"tipo_municipio":"MUNICIPIO"},
{"codigo_departamento":5,"codigo_municipio":5380,"codigo":5380009,"nombre":"SAN JOSÉ - MELEGUINDO","tipo":"CP","longitud":-75.6564113421,"latitud":6.16528468327,"tipo_municipio":"MUNICIPIO"},
{"codigo_departamento":5,"codigo_municipio":5380,"codigo":5380010,"nombre":"LA RAYA","tipo":"CP","longitud":-75.6407506821,"latitud":6.11235876928,"tipo_municipio":"MUNICIPIO"},
{"codigo_departamento":5,"codigo_municipio":5380,"codigo":5380011,"nombre":"SAN ISIDRO","tipo":"CP","longitud":-75.6233133841,"latitud":6.11886775867,"tipo_municipio":"MUNICIPIO"},
{"codigo_departamento":5,"codigo_municipio":5380,"codigo":5380012,"nombre":"TARAPACÁ","tipo":"CP","longitud":-75.6502340856,"latitud":6.16446939633,"tipo_municipio":"MUNICIPIO"},
{"codigo_departamento":5,"codigo_municipio":5380,"codigo":5380013,"nombre":"SAN MIGUEL","tipo":"CP","longitud":-75.641719859,"latitud":6.12069695,"tipo_municipio":"MUNICIPIO"},
{"codigo_departamento":5,"codigo_municipio":5380,"codigo":5380019,"nombre":"LA BERMEJALA","tipo":"CP","longitud":-75.6432157614,"latitud":6.13401266121,"tipo_municipio":"MUNICIPIO"},
{"codigo_departamento":5,"codigo_municipio":5380,"codigo":5380021,"nombre":"PEÑAS BLANCAS","tipo":"CP","longitud":-75.6413344493,"latitud":6.1281219412,"tipo_municipio":"MUNICIPIO"},
{"codigo_departamento":5,"codigo_municipio":5380,"codigo":5380022,"nombre":"LA VIRGEN PARTE ALTA","tipo":"CP","longitud":0,"latitud":0,"tipo_municipio":"MUNICIPIO"},
{"codigo_departamento":5,"codigo_municipio":5390,"codigo":5390000,"nombre":"LA PINTADA","tipo":"CM","longitud":-75.6078057481,"latitud":5.74380769651,"tipo_municipio":"MUNICIPIO"},
{"codigo_departamento":5,"codigo_municipio":5390,"codigo":5390001,"nombre":"LA BOCANA","tipo":"CP","longitud":-75.5998419747,"latitud":5.72418370606,"tipo_municipio":"MUNICIPIO"},
{"codigo_departamento":5,"codigo_municipio":5400,"codigo":5400000,"nombre":"LA UNIÓN","tipo":"CM","longitud":-75.3608622911,"latitud":5.97387113417,"tipo_municipio":"MUNICIPIO"},
{"codigo_departamento":5,"codigo_municipio":5400,"codigo":5400001,"nombre":"MESOPOTAMIA","tipo":"C","longitud":-75.3163408883,"latitud":5.88424907579,"tipo_municipio":"MUNICIPIO"},
{"codigo_departamento":5,"codigo_municipio":5400,"codigo":5400004,"nombre":"LA CONCHA","tipo":"CAS","longitud":-75.3687639246,"latitud":5.98145107307,"tipo_municipio":"MUNICIPIO"},
{"codigo_departamento":5,"codigo_municipio":5411,"codigo":5411000,"nombre":"LIBORINA","tipo":"CM","longitud":-75.8128326075,"latitud":6.67732537607,"tipo_municipio":"MUNICIPIO"},
{"codigo_departamento":5,"codigo_municipio":5411,"codigo":5411001,"nombre":"EL CARMEN - LA VENTA","tipo":"C","longitud":-75.7502216668,"latitud":6.6822543018,"tipo_municipio":"MUNICIPIO"},
{"codigo_departamento":5,"codigo_municipio":5411,"codigo":5411002,"nombre":"LA HONDA","tipo":"C","longitud":-75.8269240391,"latitud":6.78042821947,"tipo_municipio":"MUNICIPIO"},
{"codigo_departamento":5,"codigo_municipio":5411,"codigo":5411003,"nombre":"LA MERCED (PLAYÓN)","tipo":"C","longitud":-75.7493285966,"latitud":6.76561724057,"tipo_municipio":"MUNICIPIO"},
{"codigo_departamento":5,"codigo_municipio":5411,"codigo":5411004,"nombre":"SAN DIEGO (PLACITA)","tipo":"C","longitud":-75.775700823,"latitud":6.719723236,"tipo_municipio":"MUNICIPIO"},
{"codigo_departamento":5,"codigo_municipio":5411,"codigo":5411005,"nombre":"CURITÍ","tipo":"CP","longitud":-75.7988602354,"latitud":6.67352222031,"tipo_municipio":"MUNICIPIO"},
{"codigo_departamento":5,"codigo_municipio":5411,"codigo":5411007,"nombre":"CRISTÓBAL","tipo":"CP","longitud":-75.813652339,"latitud":6.7332877032,"tipo_municipio":"MUNICIPIO"},
{"codigo_departamento":5,"codigo_municipio":5411,"codigo":5411012,"nombre":"PORVENIR","tipo":"CP","longitud":-75.8115410265,"latitud":6.75279249926,"tipo_municipio":"MUNICIPIO"},
{"codigo_departamento":5,"codigo_municipio":5411,"codigo":5411013,"nombre":"PROVINCIAL","tipo":"CP","longitud":-75.7682390466,"latitud":6.72470564434,"tipo_municipio":"MUNICIPIO"},
{"codigo_departamento":5,"codigo_municipio":5425,"codigo":5425000,"nombre":"MACEO","tipo":"CM","longitud":-74.7871571162,"latitud":6.55211468066,"tipo_municipio":"MUNICIPIO"},
{"codigo_departamento":5,"codigo_municipio":5425,"codigo":5425001,"nombre":"LA SUSANA","tipo":"C","longitud":-74.657676947,"latitud":6.600558576,"tipo_municipio":"MUNICIPIO"},
{"codigo_departamento":5,"codigo_municipio":5425,"codigo":5425003,"nombre":"LA FLORESTA","tipo":"C","longitud":-74.7003884094,"latitud":6.47717614279,"tipo_municipio":"MUNICIPIO"},
{"codigo_departamento":5,"codigo_municipio":5425,"codigo":5425005,"nombre":"SAN JOSÉ DEL NUS (JOSÉ DE NUESTRA SEÑORA)","tipo":"CAS","longitud":-74.8261089822,"latitud":6.49637907051,"tipo_municipio":"MUNICIPIO"},
{"codigo_departamento":5,"codigo_municipio":5440,"codigo":5440000,"nombre":"MARINILLA","tipo":"CM","longitud":-75.3394598367,"latitud":6.17404951538,"tipo_municipio":"MUNICIPIO"},
{"codigo_departamento":5,"codigo_municipio":5467,"codigo":5467000,"nombre":"MONTEBELLO","tipo":"CM","longitud":-75.5235098947,"latitud":5.94632388294,"tipo_municipio":"MUNICIPIO"},
{"codigo_departamento":5,"codigo_municipio":5467,"codigo":5467001,"nombre":"SABALETAS","tipo":"C","longitud":-75.546359495,"latitud":5.917730781,"tipo_municipio":"MUNICIPIO"},
{"codigo_departamento":5,"codigo_municipio":5467,"codigo":5467006,"nombre":"LA GRANJA","tipo":"CP","longitud":-75.537415369,"latitud":5.952080755,"tipo_municipio":"MUNICIPIO"},
{"codigo_departamento":5,"codigo_municipio":5467,"codigo":5467008,"nombre":"PIEDRA GALANA","tipo":"CP","longitud":-75.5248981832,"latitud":5.86948733889,"tipo_municipio":"MUNICIPIO"},
{"codigo_departamento":5,"codigo_municipio":5467,"codigo":5467009,"nombre":"ZARCITOS PARTE ALTA","tipo":"CP","longitud":0,"latitud":0,"tipo_municipio":"MUNICIPIO"},
{"codigo_departamento":5,"codigo_municipio":5475,"codigo":5475000,"nombre":"MURINDÓ","tipo":"CM","longitud":-76.8174595267,"latitud":6.97768956086,"tipo_municipio":"MUNICIPIO"},
{"codigo_departamento":5,"codigo_municipio":5475,"codigo":5475001,"nombre":"OPOGADO","tipo":"C","longitud":-76.8780211599,"latitud":6.81455593789,"tipo_municipio":"MUNICIPIO"},
{"codigo_departamento":5,"codigo_municipio":5475,"codigo":5475005,"nombre":"JEDEGA","tipo":"IP","longitud":-76.7850903433,"latitud":6.87372565119,"tipo_municipio":"MUNICIPIO"},
{"codigo_departamento":5,"codigo_municipio":5475,"codigo":5475006,"nombre":"TADÍA","tipo":"CAS","longitud":-76.810711592,"latitud":6.85902045372,"tipo_municipio":"MUNICIPIO"},
{"codigo_departamento":5,"codigo_municipio":5475,"codigo":5475007,"nombre":"BEBARAMEÑO","tipo":"CP","longitud":-76.8567950692,"latitud":6.84572095643,"tipo_municipio":"MUNICIPIO"},
{"codigo_departamento":5,"codigo_municipio":5480,"codigo":5480000,"nombre":"MUTATÁ","tipo":"CM","longitud":-76.4358758959,"latitud":7.24287193339,"tipo_municipio":"MUNICIPIO"},
{"codigo_departamento":5,"codigo_municipio":5480,"codigo":5480001,"nombre":"BEJUQUILLO","tipo":"C","longitud":-76.5055829679,"latitud":7.36583181376,"tipo_municipio":"MUNICIPIO"},
{"codigo_departamento":5,"codigo_municipio":5480,"codigo":5480002,"nombre":"PAVARANDOCITO","tipo":"C","longitud":-76.5162850659,"latitud":7.296265425,"tipo_municipio":"MUNICIPIO"},
{"codigo_departamento":5,"codigo_municipio":5480,"codigo":5480003,"nombre":"VILLA ARTEAGA","tipo":"CAS","longitud":-76.4899367612,"latitud":7.35601557706,"tipo_municipio":"MUNICIPIO"},
{"codigo_departamento":5,"codigo_municipio":5480,"codigo":5480004,"nombre":"PAVARANDO GRANDE","tipo":"C","longitud":-76.5583188766,"latitud":7.2772600107,"tipo_municipio":"MUNICIPIO"},
{"codigo_departamento":5,"codigo_municipio":5480,"codigo":5480006,"nombre":"CAUCHERAS","tipo":"CAS","longitud":-76.4892542871,"latitud":7.33409174549,"tipo_municipio":"MUNICIPIO"},
{"codigo_departamento":5,"codigo_municipio":5483,"codigo":5483000,"nombre":"NARIÑO","tipo":"CM","longitud":-75.1762617711,"latitud":5.61077722195,"tipo_municipio":"MUNICIPIO"},
{"codigo_departamento":5,"codigo_municipio":5483,"codigo":5483001,"nombre":"PUERTO VENUS","tipo":"C","longitud":-75.1933676658,"latitud":5.52137239475,"tipo_municipio":"MUNICIPIO"},
{"codigo_departamento":5,"codigo_municipio":5490,"codigo":5490000,"nombre":"NECOCLÍ","tipo":"CM","longitud":-76.784574497,"latitud":8.426136098,"tipo_municipio":"MUNICIPIO"},
{"codigo_departamento":5,"codigo_municipio":5490,"codigo":5490001,"nombre":"EL TOTUMO","tipo":"C","longitud":-76.7460244545,"latitud":8.32931924597,"tipo_municipio":"MUNICIPIO"},
{"codigo_departamento":5,"codigo_municipio":5490,"codigo":5490002,"nombre":"MULATOS","tipo":"C","longitud":-76.717399498,"latitud":8.63237679,"tipo_municipio":"MUNICIPIO"},
{"codigo_departamento":5,"codigo_municipio":5490,"codigo":5490003,"nombre":"PUEBLO NUEVO","tipo":"C","longitud":-76.6439324768,"latitud":8.41636175685,"tipo_municipio":"MUNICIPIO"},
{"codigo_departamento":5,"codigo_municipio":5490,"codigo":5490004,"nombre":"ZAPATA","tipo":"C","longitud":-76.6370063367,"latitud":8.68394705677,"tipo_municipio":"MUNICIPIO"},
{"codigo_departamento":5,"codigo_municipio":5490,"codigo":5490005,"nombre":"CARIBIA","tipo":"C","longitud":-76.6709002727,"latitud":8.50220372222,"tipo_municipio":"MUNICIPIO"},
{"codigo_departamento":5,"codigo_municipio":5490,"codigo":5490006,"nombre":"VEREDA CASA BLANCA","tipo":"CAS","longitud":-76.755388584,"latitud":8.36994958996,"tipo_municipio":"MUNICIPIO"},
{"codigo_departamento":5,"codigo_municipio":5490,"codigo":5490007,"nombre":"VEREDA EL BOBAL","tipo":"CAS","longitud":-76.7538767607,"latitud":8.41217004257,"tipo_municipio":"MUNICIPIO"},
{"codigo_departamento":5,"codigo_municipio":5490,"codigo":5490008,"nombre":"LAS CHANGAS","tipo":"C","longitud":-76.5740114658,"latitud":8.54753528327,"tipo_municipio":"MUNICIPIO"},
{"codigo_departamento":5,"codigo_municipio":5490,"codigo":5490009,"nombre":"EL MELLITO","tipo":"C","longitud":-76.672424039,"latitud":8.5435703777,"tipo_municipio":"MUNICIPIO"},
{"codigo_departamento":5,"codigo_municipio":5490,"codigo":5490010,"nombre":"BRISAS DEL RÍO","tipo":"CAS","longitud":-76.630303395,"latitud":8.41482226474,"tipo_municipio":"MUNICIPIO"},
{"codigo_departamento":5,"codigo_municipio":5490,"codigo":5490011,"nombre":"CARLOS ARRIBA","tipo":"CAS","longitud":-76.7334764061,"latitud":8.38821276839,"tipo_municipio":"MUNICIPIO"},
{"codigo_departamento":5,"codigo_municipio":5490,"codigo":5490012,"nombre":"EL VOLAO","tipo":"CAS","longitud":-76.5582795138,"latitud":8.54548107347,"tipo_municipio":"MUNICIPIO"},
{"codigo_departamento":5,"codigo_municipio":5490,"codigo":5490013,"nombre":"LA COMARCA","tipo":"CAS","longitud":-76.637694494,"latitud":8.445907037,"tipo_municipio":"MUNICIPIO"},
{"codigo_departamento":5,"codigo_municipio":5490,"codigo":5490014,"nombre":"LOMA DE PIEDRA","tipo":"CAS","longitud":-76.652426106,"latitud":8.426386232,"tipo_municipio":"MUNICIPIO"},
{"codigo_departamento":5,"codigo_municipio":5490,"codigo":5490015,"nombre":"MELLO VILLAVICENCIO","tipo":"CAS","longitud":-76.5653003274,"latitud":8.45645576308,"tipo_municipio":"MUNICIPIO"},
{"codigo_departamento":5,"codigo_municipio":5490,"codigo":5490016,"nombre":"TULAPITA","tipo":"CAS","longitud":-76.6167929844,"latitud":8.36881302926,"tipo_municipio":"MUNICIPIO"},
{"codigo_departamento":5,"codigo_municipio":5490,"codigo":5490017,"nombre":"VALE PAVA","tipo":"CAS","longitud":0,"latitud":0,"tipo_municipio":"MUNICIPIO"},
{"codigo_departamento":5,"codigo_municipio":5495,"codigo":5495000,"nombre":"NECHÍ","tipo":"CM","longitud":-74.7764699611,"latitud":8.09412977783,"tipo_municipio":"MUNICIPIO"},
{"codigo_departamento":5,"codigo_municipio":5495,"codigo":5495001,"nombre":"BIJAGUAL","tipo":"C","longitud":-74.8088961672,"latitud":7.85618060397,"tipo_municipio":"MUNICIPIO"},
{"codigo_departamento":5,"codigo_municipio":5495,"codigo":5495002,"nombre":"COLORADO","tipo":"C","longitud":-74.8753663425,"latitud":8.05661705016,"tipo_municipio":"MUNICIPIO"},
{"codigo_departamento":5,"codigo_municipio":5495,"codigo":5495003,"nombre":"LA CONCHA","tipo":"C","longitud":-74.8682095888,"latitud":7.94838644558,"tipo_municipio":"MUNICIPIO"},
{"codigo_departamento":5,"codigo_municipio":5495,"codigo":5495004,"nombre":"LAS FLORES","tipo":"C","longitud":-74.7585985056,"latitud":8.10002617929,"tipo_municipio":"MUNICIPIO"},
{"codigo_departamento":5,"codigo_municipio":5495,"codigo":5495005,"nombre":"CARGUEROS","tipo":"C","longitud":-74.8097099398,"latitud":7.88682620163,"tipo_municipio":"MUNICIPIO"},
{"codigo_departamento":5,"codigo_municipio":5501,"codigo":5501000,"nombre":"OLAYA","tipo":"CM","longitud":-75.8118744168,"latitud":6.62660499706,"tipo_municipio":"MUNICIPIO"},
{"codigo_departamento":5,"codigo_municipio":5501,"codigo":5501001,"nombre":"LLANADAS","tipo":"C","longitud":-75.7639282406,"latitud":6.61209765007,"tipo_municipio":"MUNICIPIO"},
{"codigo_departamento":5,"codigo_municipio":5501,"codigo":5501002,"nombre":"SUCRE","tipo":"C","longitud":-75.7962148097,"latitud":6.59476275953,"tipo_municipio":"MUNICIPIO"},
{"codigo_departamento":5,"codigo_municipio":5501,"codigo":5501004,"nombre":"QUEBRADA SECA","tipo":"CP","longitud":-75.7921750339,"latitud":6.57678045818,"tipo_municipio":"MUNICIPIO"},
{"codigo_departamento":5,"codigo_municipio":5541,"codigo":5541000,"nombre":"PEÑOL","tipo":"CM","longitud":-75.2428178132,"latitud":6.21945021233,"tipo_municipio":"MUNICIPIO"},
{"codigo_departamento":5,"codigo_municipio":5543,"codigo":5543000,"nombre":"PEQUE","tipo":"CM","longitud":-75.9103556989,"latitud":7.02103925848,"tipo_municipio":"MUNICIPIO"},
{"codigo_departamento":5,"codigo_municipio":5543,"codigo":5543001,"nombre":"BARBACOAS","tipo":"C","longitud":-75.8291338291,"latitud":6.92588430027,"tipo_municipio":"MUNICIPIO"},
{"codigo_departamento":5,"codigo_municipio":5543,"codigo":5543003,"nombre":"LOS LLANOS","tipo":"C","longitud":-75.905805416,"latitud":7.06539774755,"tipo_municipio":"MUNICIPIO"},
{"codigo_departamento":5,"codigo_municipio":5543,"codigo":5543005,"nombre":"TOLDAS","tipo":"IP","longitud":-75.9431574645,"latitud":7.01862337406,"tipo_municipio":"MUNICIPIO"},
{"codigo_departamento":5,"codigo_municipio":5576,"codigo":5576000,"nombre":"PUEBLORRICO","tipo":"CM","longitud":-75.8397134748,"latitud":5.79168858961,"tipo_municipio":"MUNICIPIO"},
{"codigo_departamento":5,"codigo_municipio":5579,"codigo":5579000,"nombre":"PUERTO BERRÍO","tipo":"CM","longitud":-74.4099459786,"latitud":6.48703921007,"tipo_municipio":"MUNICIPIO"},
{"codigo_departamento":5,"codigo_municipio":5579,"codigo":5579001,"nombre":"PUERTO MURILLO","tipo":"C","longitud":-74.3942038507,"latitud":6.60481051582,"tipo_municipio":"MUNICIPIO"},
{"codigo_departamento":5,"codigo_municipio":5579,"codigo":5579002,"nombre":"VIRGINIAS","tipo":"C","longitud":-74.682332898,"latitud":6.39188110039,"tipo_municipio":"MUNICIPIO"},
{"codigo_departamento":5,"codigo_municipio":5579,"codigo":5579003,"nombre":"CABAÑAS","tipo":"C","longitud":-74.6259634384,"latitud":6.3924017256,"tipo_municipio":"MUNICIPIO"},
{"codigo_departamento":5,"codigo_municipio":5579,"codigo":5579004,"nombre":"EL BRASIL","tipo":"C","longitud":-74.607798766,"latitud":6.480886038,"tipo_municipio":"MUNICIPIO"},
{"codigo_departamento":5,"codigo_municipio":5579,"codigo":5579005,"nombre":"LA CRISTALINA","tipo":"C","longitud":-74.5771879111,"latitud":6.41079208219,"tipo_municipio":"MUNICIPIO"},
{"codigo_departamento":5,"codigo_municipio":5579,"codigo":5579009,"nombre":"MALENA","tipo":"C","longitud":-74.4909240975,"latitud":6.44141752101,"tipo_municipio":"MUNICIPIO"},
{"codigo_departamento":5,"codigo_municipio":5579,"codigo":5579010,"nombre":"CALERA","tipo":"C","longitud":-74.5372380332,"latitud":6.43341424882,"tipo_municipio":"MUNICIPIO"},
{"codigo_departamento":5,"codigo_municipio":5579,"codigo":5579011,"nombre":"BODEGAS","tipo":"C","longitud":-74.4092195052,"latitud":6.71550702695,"tipo_municipio":"MUNICIPIO"},
{"codigo_departamento":5,"codigo_municipio":5579,"codigo":5579012,"nombre":"DORADO - CALAMAR","tipo":"C","longitud":-74.652114895,"latitud":6.444681256,"tipo_municipio":"MUNICIPIO"},
{"codigo_departamento":5,"codigo_municipio":5579,"codigo":5579013,"nombre":"LA CARLOTA","tipo":"C","longitud":-74.571592847,"latitud":6.49222566,"tipo_municipio":"MUNICIPIO"},
{"codigo_departamento":5,"codigo_municipio":5579,"codigo":5579014,"nombre":"MINAS DEL VAPOR","tipo":"C","longitud":-74.627862276,"latitud":6.457977729,"tipo_municipio":"MUNICIPIO"},
{"codigo_departamento":5,"codigo_municipio":5579,"codigo":5579015,"nombre":"SANTA MARTINA","tipo":"C","longitud":-74.430665239,"latitud":6.657461079,"tipo_municipio":"MUNICIPIO"},
{"codigo_departamento":5,"codigo_municipio":5585,"codigo":5585000,"nombre":"PUERTO NARE","tipo":"CM","longitud":-74.5830116056,"latitud":6.18602382303,"tipo_municipio":"MUNICIPIO"},
{"codigo_departamento":5,"codigo_municipio":5585,"codigo":5585001,"nombre":"ARABIA","tipo":"C","longitud":-74.7665498263,"latitud":6.15448376828,"tipo_municipio":"MUNICIPIO"},
{"codigo_departamento":5,"codigo_municipio":5585,"codigo":5585002,"nombre":"LOS DELIRIOS","tipo":"C","longitud":-74.7552059687,"latitud":6.0807485571,"tipo_municipio":"MUNICIPIO"},
{"codigo_departamento":5,"codigo_municipio":5585,"codigo":5585003,"nombre":"LA SIERRA","tipo":"C","longitud":-74.571688767,"latitud":6.2194791,"tipo_municipio":"MUNICIPIO"},
{"codigo_departamento":5,"codigo_municipio":5585,"codigo":5585004,"nombre":"LA UNIÓN","tipo":"C","longitud":-74.702168515,"latitud":6.18473128153,"tipo_municipio":"MUNICIPIO"},
{"codigo_departamento":5,"codigo_municipio":5585,"codigo":5585006,"nombre":"LA PESCA","tipo":"C","longitud":-74.5911345042,"latitud":6.20596042653,"tipo_municipio":"MUNICIPIO"},
{"codigo_departamento":5,"codigo_municipio":5585,"codigo":5585008,"nombre":"LAS ANGELITAS","tipo":"C","longitud":-74.5841107701,"latitud":6.04725225727,"tipo_municipio":"MUNICIPIO"},
{"codigo_departamento":5,"codigo_municipio":5585,"codigo":5585009,"nombre":"LA CLARA","tipo":"C","longitud":-74.704580105,"latitud":6.207895841,"tipo_municipio":"MUNICIPIO"},
{"codigo_departamento":5,"codigo_municipio":5585,"codigo":5585010,"nombre":"EL PRODIGIO","tipo":"CP","longitud":-74.8064724657,"latitud":6.06427562942,"tipo_municipio":"MUNICIPIO"},
{"codigo_departamento":5,"codigo_municipio":5591,"codigo":5591000,"nombre":"PUERTO TRIUNFO","tipo":"CM","longitud":-74.6412656382,"latitud":5.87120719689,"tipo_municipio":"MUNICIPIO"},
{"codigo_departamento":5,"codigo_municipio":5591,"codigo":5591002,"nombre":"PUERTO PERALES NUEVO","tipo":"C","longitud":-74.5874584427,"latitud":5.98850204079,"tipo_municipio":"MUNICIPIO"},
{"codigo_departamento":5,"codigo_municipio":5591,"codigo":5591003,"nombre":"ESTACIÓN COCORNÁ","tipo":"C","longitud":-74.6391867763,"latitud":6.03359822376,"tipo_municipio":"MUNICIPIO"},
{"codigo_departamento":5,"codigo_municipio":5591,"codigo":5591004,"nombre":"DORADAL","tipo":"C","longitud":-74.7352820408,"latitud":5.89990838552,"tipo_municipio":"MUNICIPIO"},
{"codigo_departamento":5,"codigo_municipio":5591,"codigo":5591005,"nombre":"LA MERCEDES","tipo":"C","longitud":-74.7734413396,"latitud":5.92800018537,"tipo_municipio":"MUNICIPIO"},
{"codigo_departamento":5,"codigo_municipio":5591,"codigo":5591007,"nombre":"ESTACIÓN PITA","tipo":"CAS","longitud":-74.6340583189,"latitud":5.95418488317,"tipo_municipio":"MUNICIPIO"},
{"codigo_departamento":5,"codigo_municipio":5591,"codigo":5591008,"nombre":"LA FLORIDA","tipo":"CAS","longitud":-74.810684928,"latitud":5.928961005,"tipo_municipio":"MUNICIPIO"},
{"codigo_departamento":5,"codigo_municipio":5591,"codigo":5591009,"nombre":"SANTIAGO BERRIO","tipo":"C","longitud":-74.6428865128,"latitud":5.90414421326,"tipo_municipio":"MUNICIPIO"},
{"codigo_departamento":5,"codigo_municipio":5591,"codigo":5591010,"nombre":"EL ALTO DEL POLLO","tipo":"CAS","longitud":-74.771713248,"latitud":5.901201188,"tipo_municipio":"MUNICIPIO"},
{"codigo_departamento":5,"codigo_municipio":5591,"codigo":5591011,"nombre":"TRES RANCHOS","tipo":"CAS","longitud":-74.797141036,"latitud":5.916797149,"tipo_municipio":"MUNICIPIO"},
{"codigo_departamento":5,"codigo_municipio":5604,"codigo":5604000,"nombre":"REMEDIOS","tipo":"CM","longitud":-74.6980471636,"latitud":7.02939076621,"tipo_municipio":"MUNICIPIO"},
{"codigo_departamento":5,"codigo_municipio":5604,"codigo":5604001,"nombre":"LA CRUZADA","tipo":"C","longitud":-74.7151976538,"latitud":7.06956855483,"tipo_municipio":"MUNICIPIO"},
{"codigo_departamento":5,"codigo_municipio":5604,"codigo":5604003,"nombre":"SANTA ISABEL","tipo":"C","longitud":-74.7419702092,"latitud":6.94560423789,"tipo_municipio":"MUNICIPIO"},
{"codigo_departamento":5,"codigo_municipio":5604,"codigo":5604005,"nombre":"OTÚ","tipo":"CAS","longitud":-74.717054047,"latitud":7.011760762,"tipo_municipio":"MUNICIPIO"},
{"codigo_departamento":5,"codigo_municipio":5604,"codigo":5604007,"nombre":"CAÑAVERAL","tipo":"CAS","longitud":-74.5917330015,"latitud":7.17453946758,"tipo_municipio":"MUNICIPIO"},
{"codigo_departamento":5,"codigo_municipio":5604,"codigo":5604008,"nombre":"MARTANA","tipo":"CAS","longitud":-74.676903846,"latitud":7.001184796,"tipo_municipio":"MUNICIPIO"},
{"codigo_departamento":5,"codigo_municipio":5604,"codigo":5604009,"nombre":"RÍO BAGRE","tipo":"CAS","longitud":-74.6301601334,"latitud":7.15623183272,"tipo_municipio":"MUNICIPIO"},
{"codigo_departamento":5,"codigo_municipio":5604,"codigo":5604010,"nombre":"CAMPO VIJAO","tipo":"CAS","longitud":-74.3613238155,"latitud":6.91317177133,"tipo_municipio":"MUNICIPIO"},
{"codigo_departamento":5,"codigo_municipio":5604,"codigo":5604011,"nombre":"CHORRO DE LAGRIMAS","tipo":"CAS","longitud":0,"latitud":0,"tipo_municipio":"MUNICIPIO"},
{"codigo_departamento":5,"codigo_municipio":5607,"codigo":5607000,"nombre":"RETIRO","tipo":"CM","longitud":-75.5013756659,"latitud":6.06338107129,"tipo_municipio":"MUNICIPIO"},
{"codigo_departamento":5,"codigo_municipio":5607,"codigo":5607003,"nombre":"ALTO DE CARRIZALES","tipo":"CAS","longitud":-75.5185424368,"latitud":6.14010864851,"tipo_municipio":"MUNICIPIO"},
{"codigo_departamento":5,"codigo_municipio":5607,"codigo":5607004,"nombre":"DON DIEGO","tipo":"CAS","longitud":-75.4803305449,"latitud":6.08918523135,"tipo_municipio":"MUNICIPIO"},
{"codigo_departamento":5,"codigo_municipio":5607,"codigo":5607005,"nombre":"EL CHUSCAL LA CAMPANITA","tipo":"CAS","longitud":-75.4520229807,"latitud":6.05276991677,"tipo_municipio":"MUNICIPIO"},
{"codigo_departamento":5,"codigo_municipio":5607,"codigo":5607007,"nombre":"LOS SALADOS","tipo":"CAS","longitud":-75.5000429248,"latitud":6.11852271453,"tipo_municipio":"MUNICIPIO"},
{"codigo_departamento":5,"codigo_municipio":5607,"codigo":5607009,"nombre":"EL PORTENTO","tipo":"CP","longitud":-75.468580362,"latitud":6.07221398845,"tipo_municipio":"MUNICIPIO"},
{"codigo_departamento":5,"codigo_municipio":5607,"codigo":5607013,"nombre":"CARRIZALES LA BORRASCOSA","tipo":"CAS","longitud":-75.5113031458,"latitud":6.13828410174,"tipo_municipio":"MUNICIPIO"},
{"codigo_departamento":5,"codigo_municipio":5615,"codigo":5615000,"nombre":"RIONEGRO","tipo":"CM","longitud":-75.3767667557,"latitud":6.1472245313,"tipo_municipio":"MUNICIPIO"},
{"codigo_departamento":5,"codigo_municipio":5615,"codigo":5615002,"nombre":"EL TABLAZO","tipo":"CP","longitud":-75.4486980824,"latitud":6.14315254498,"tipo_municipio":"MUNICIPIO"},
{"codigo_departamento":5,"codigo_municipio":5615,"codigo":5615013,"nombre":"PONTEZUELA","tipo":"CP","longitud":-75.424095768,"latitud":6.08014442639,"tipo_municipio":"MUNICIPIO"},
{"codigo_departamento":5,"codigo_municipio":5615,"codigo":5615014,"nombre":"ALTO BONITO","tipo":"CP","longitud":-75.384854651,"latitud":6.162987193,"tipo_municipio":"MUNICIPIO"},
{"codigo_departamento":5,"codigo_municipio":5615,"codigo":5615017,"nombre":"LA MOSCA","tipo":"CP","longitud":-75.381847456,"latitud":6.20182082,"tipo_municipio":"MUNICIPIO"},
{"codigo_departamento":5,"codigo_municipio":5615,"codigo":5615025,"nombre":"BARRO BLANCO","tipo":"CP","longitud":-75.406817021,"latitud":6.1492162228,"tipo_municipio":"MUNICIPIO"},
{"codigo_departamento":5,"codigo_municipio":5615,"codigo":5615026,"nombre":"CONDOMINIO CAMPESTRE LAGO GRANDE","tipo":"CP","longitud":-75.4441117595,"latitud":6.12415631817,"tipo_municipio":"MUNICIPIO"},
{"codigo_departamento":5,"codigo_municipio":5615,"codigo":5615027,"nombre":"CONDOMINIO EL REMANSO","tipo":"CP","longitud":-75.4006259435,"latitud":6.13354821127,"tipo_municipio":"MUNICIPIO"},
{"codigo_departamento":5,"codigo_municipio":5615,"codigo":5615028,"nombre":"CONDOMINIO SIERRAS DE MAYORI","tipo":"CP","longitud":-75.4406300049,"latitud":6.16165786904,"tipo_municipio":"MUNICIPIO"},
{"codigo_departamento":5,"codigo_municipio":5615,"codigo":5615029,"nombre":"PARCELACIÓN CONJUNTO CAMPESTRE LLANO GRANDE","tipo":"CP","longitud":-75.4465384787,"latitud":6.11312597413,"tipo_municipio":"MUNICIPIO"},
{"codigo_departamento":5,"codigo_municipio":5615,"codigo":5615030,"nombre":"GALICIA PARTE ALTA","tipo":"CP","longitud":-75.3598197892,"latitud":6.19439896675,"tipo_municipio":"MUNICIPIO"},
{"codigo_departamento":5,"codigo_municipio":5615,"codigo":5615031,"nombre":"GALICIA PARTE BAJA","tipo":"CP","longitud":-75.3661113121,"latitud":6.18548633175,"tipo_municipio":"MUNICIPIO"},
{"codigo_departamento":5,"codigo_municipio":5615,"codigo":5615032,"nombre":"JAMAICA PARCELACION CAMPESTRE","tipo":"CP","longitud":-75.4427545035,"latitud":6.18266235534,"tipo_municipio":"MUNICIPIO"},
{"codigo_departamento":5,"codigo_municipio":5615,"codigo":5615033,"nombre":"PARCELACIÓN AGUA LUNA DE ORIENTE","tipo":"CP","longitud":-75.4196143871,"latitud":6.13056167049,"tipo_municipio":"MUNICIPIO"},
{"codigo_departamento":5,"codigo_municipio":5615,"codigo":5615034,"nombre":"PARCELACION ANDALUCIA","tipo":"CP","longitud":-75.4298155801,"latitud":6.13262357007,"tipo_municipio":"MUNICIPIO"},
{"codigo_departamento":5,"codigo_municipio":5615,"codigo":5615035,"nombre":"PARCELACION CAMELOT","tipo":"CP","longitud":-75.4046460328,"latitud":6.11643162263,"tipo_municipio":"MUNICIPIO"},
{"codigo_departamento":5,"codigo_municipio":5615,"codigo":5615036,"nombre":"PARCELACIÓN COCUYO","tipo":"CP","longitud":-75.415278467,"latitud":6.1138445272,"tipo_municipio":"MUNICIPIO"},
{"codigo_departamento":5,"codigo_municipio":5615,"codigo":5615037,"nombre":"PARCELACIÓN COLINAS DE PAIMADÓ","tipo":"CP","longitud":-75.4382538694,"latitud":6.14707518979,"tipo_municipio":"MUNICIPIO"},
{"codigo_departamento":5,"codigo_municipio":5615,"codigo":5615038,"nombre":"PARCELACIÓN CONJUNTO CAMPESTRE LLANO GRANDE","tipo":"CP","longitud":0,"latitud":0,"tipo_municipio":"MUNICIPIO"},
{"codigo_departamento":5,"codigo_municipio":5615,"codigo":5615039,"nombre":"PARCELACIÓN LA QUERENCIA","tipo":"CP","longitud":-75.4481576572,"latitud":6.16881184134,"tipo_municipio":"MUNICIPIO"},
{"codigo_departamento":5,"codigo_municipio":5615,"codigo":5615040,"nombre":"PARCELACION LAS BRUMAS","tipo":"CP","longitud":-75.3919369026,"latitud":6.12149278195,"tipo_municipio":"MUNICIPIO"},
{"codigo_departamento":5,"codigo_municipio":5615,"codigo":5615041,"nombre":"PARCELACIÓN LLANOS DE NORMANDÍA","tipo":"CP","longitud":-75.4251424957,"latitud":6.11931502296,"tipo_municipio":"MUNICIPIO"},
{"codigo_departamento":5,"codigo_municipio":5615,"codigo":5615042,"nombre":"PARCELACION NORMANDIA","tipo":"CP","longitud":-75.4508284214,"latitud":6.12583775954,"tipo_municipio":"MUNICIPIO"},
{"codigo_departamento":5,"codigo_municipio":5615,"codigo":5615043,"nombre":"PARCELACION SANTA MARIA DEL LLANO","tipo":"CP","longitud":-75.39928155,"latitud":6.12872272682,"tipo_municipio":"MUNICIPIO"},
{"codigo_departamento":5,"codigo_municipio":5615,"codigo":5615044,"nombre":"PARCELACIÓN SIERRA ALTA","tipo":"CP","longitud":-75.4564599326,"latitud":6.11964825905,"tipo_municipio":"MUNICIPIO"},
{"codigo_departamento":5,"codigo_municipio":5615,"codigo":5615045,"nombre":"PARCELACIÓN TORRE MOLINOS","tipo":"CP","longitud":-75.435820321,"latitud":6.13749004941,"tipo_municipio":"MUNICIPIO"},
{"codigo_departamento":5,"codigo_municipio":5615,"codigo":5615046,"nombre":"PARCELACIÓN TOSCANA","tipo":"CP","longitud":-75.4107242214,"latitud":6.10067271235,"tipo_municipio":"MUNICIPIO"},
{"codigo_departamento":5,"codigo_municipio":5615,"codigo":5615047,"nombre":"PARCELACIÓN VEGAS DE GUADALCANAL","tipo":"CP","longitud":-75.4019136859,"latitud":6.145351641,"tipo_municipio":"MUNICIPIO"},
{"codigo_departamento":5,"codigo_municipio":5628,"codigo":5628000,"nombre":"SABANALARGA","tipo":"CM","longitud":-75.8166459364,"latitud":6.85002081371,"tipo_municipio":"MUNICIPIO"},
{"codigo_departamento":5,"codigo_municipio":5628,"codigo":5628001,"nombre":"EL JUNCO","tipo":"CP","longitud":-75.8250322893,"latitud":6.80661519735,"tipo_municipio":"MUNICIPIO"},
{"codigo_departamento":5,"codigo_municipio":5628,"codigo":5628002,"nombre":"EL ORO","tipo":"C","longitud":-75.7552282406,"latitud":6.93202230989,"tipo_municipio":"MUNICIPIO"},
{"codigo_departamento":5,"codigo_municipio":5628,"codigo":5628004,"nombre":"EL SOCORRO","tipo":"CP","longitud":-75.7464574406,"latitud":6.90534322059,"tipo_municipio":"MUNICIPIO"},
{"codigo_departamento":5,"codigo_municipio":5628,"codigo":5628007,"nombre":"MEMBRILLAL","tipo":"CP","longitud":-75.805959546,"latitud":6.894456307,"tipo_municipio":"MUNICIPIO"},
{"codigo_departamento":5,"codigo_municipio":5628,"codigo":5628008,"nombre":"PENDIENTE","tipo":"CP","longitud":0,"latitud":0,"tipo_municipio":"MUNICIPIO"},
{"codigo_departamento":5,"codigo_municipio":5631,"codigo":5631000,"nombre":"SABANETA","tipo":"CM","longitud":-75.6155845416,"latitud":6.15096981767,"tipo_municipio":"MUNICIPIO"},
{"codigo_departamento":5,"codigo_municipio":5631,"codigo":5631001,"nombre":"MARÍA AUXILIADORA","tipo":"CP","longitud":-75.5999244297,"latitud":6.14995456155,"tipo_municipio":"MUNICIPIO"},
{"codigo_departamento":5,"codigo_municipio":5631,"codigo":5631002,"nombre":"CAÑAVERALEJO","tipo":"CP","longitud":-75.6212029295,"latitud":6.14039044649,"tipo_municipio":"MUNICIPIO"},
{"codigo_departamento":5,"codigo_municipio":5631,"codigo":5631006,"nombre":"SAN ISIDRO","tipo":"CP","longitud":-75.6090344525,"latitud":6.14103011087,"tipo_municipio":"MUNICIPIO"},
{"codigo_departamento":5,"codigo_municipio":5631,"codigo":5631007,"nombre":"LA INMACULADA","tipo":"CP","longitud":-75.6108307602,"latitud":6.14184502409,"tipo_municipio":"MUNICIPIO"},
{"codigo_departamento":5,"codigo_municipio":5631,"codigo":5631008,"nombre":"PAN DE AZÚCAR","tipo":"CP","longitud":-75.630595835,"latitud":6.13986999745,"tipo_municipio":"MUNICIPIO"},
{"codigo_departamento":5,"codigo_municipio":5631,"codigo":5631009,"nombre":"LA DOCTORA","tipo":"CP","longitud":-75.6112060951,"latitud":6.13759641511,"tipo_municipio":"MUNICIPIO"},